,rank,name,number_students,student_staff_ratio,intl_students,female_male_ratio,overall_score,teaching_score,research_score,citations_score,industry_income_score,international_outlook_score,address,street_address,locality_address,region_address,postcode_address,country_address,Country,City,Latitude,Longitude
0,1,university oxford,20665,11.2,41.0,46.0,95.4,90.5,99.6,98.4,65.5,96.4,"University Offices, Wellington Square, Oxford, Oxfordshire, OX1 2JD, United Kingdom",,,,,,United Kingdom, Oxford,51.7520131,-1.2578499
1,2,california institute technology caltech,2240,6.4,30.0,34.0,94.5,92.1,97.2,97.9,88.0,82.5,"1200 East California Boulevard, Pasadena, California, 91125, United States",,,,,,United States, Pasadena,34.1476452,-118.1444779
2,3,university cambridge,18980,10.9,37.0,47.0,94.4,91.4,98.7,95.8,59.3,95.0,"The Old Schools, Trinity Lane, Cambridge, Cambridgeshire, CB2 1TN, United Kingdom",,,,,,United Kingdom, Cambridge,52.2055314,0.1186637
3,4,stanford university,16135,7.3,23.0,43.0,94.3,92.8,96.4,99.9,66.2,79.5,"450 Jane Stanford Way, Stanford, California, United States",,,,,,United States, Stanford,37.4265407,-122.17030545534064
4,5,massachusetts institute technology,11247,8.6,34.0,39.0,93.6,90.5,92.4,99.5,86.9,89.0,"77 Massachusetts Avenue, Cambridge, Massachusetts, 02139-4307, United States",,,,,,United States, Cambridge,42.3750997,-71.1056157
5,6,princeton university,7983,8.1,25.0,45.0,93.2,90.3,96.3,98.8,58.6,81.1,"Princeton, New Jersey, 08544, United States",,,,,,United States,Princeton,40.3492744,-74.6592958
6,7,harvard university,20823,9.2,24.0,49.0,93.0,89.2,98.6,99.1,47.3,76.3,"Massachusetts Hall, Cambridge, Massachusetts, 02138, United States",,,,,,United States, Cambridge,42.3750997,-71.1056157
7,8,yale university,12402,5.4,20.0,50.0,91.7,92.0,94.8,97.3,52.4,68.7,"New Haven, Connecticut, 06520, United States",,,,,,United States,New Haven,41.3082138,-72.9250518
8,9,university chicago,13833,5.7,28.0,46.0,90.2,89.1,91.4,96.7,52.7,76.0,"Edward H. Levi Hall, 5801 South Ellis Avenue, Chicago, Illinois, 60637, United States",,,,,,United States, Chicago,41.8755616,-87.6244212
9,10,imperial college london,16760,11.6,56.0,38.0,89.8,84.5,87.6,97.0,69.9,97.1,"South Kensington Road, Kensington, London, SW7 2AZ, United Kingdom",,,,,,United Kingdom, Kensington,51.4989948,-0.1991229
10,11,university pennsylvania,20578,6.5,21.0,52.0,89.6,87.5,90.4,98.2,74.0,65.0,"3451 Walnut Street, Philadelphia, Philadelphia, Pennsylvania, 19104, United States",,,,,,United States, Philadelphia,39.9527237,-75.1635262
11,12,johns hopkins university,16171,4.5,26.0,52.0,89.2,81.7,91.4,98.3,91.3,73.2,"Baltimore, Maryland, 21218, United States",,,,,,United States,Baltimore,39.2908816,-76.610759
12,13,university california berkeley,41081,13.7,17.0,50.0,88.3,83.0,90.6,99.2,46.1,70.4,"110 Sproul Hall, Berkeley, California, 94704, United States",,,,,,United States, Berkeley,37.8708393,-122.272863
13,13,eth zurich,18956,12.5,39.0,32.0,88.3,81.8,92.8,90.3,56.8,98.2,"Rämistrasse 101, Zürich, 8092, Switzerland",,,,,,Switzerland, Zürich,47.3744489,8.5410422
14,15,ucl,32665,10.6,52.0,57.0,87.1,77.8,88.7,96.1,42.7,96.2,"Gower Street, London, WC1E 6BT, United Kingdom",,,,,,United Kingdom, London,51.5073359,-0.12765
17,18,university toronto,73370,20.1,21.0,59.0,85.5,76.6,89.5,93.6,50.5,84.7,"27 King's College Circle, Toronto, Ontario, M5S 1A1, Canada",,,,,,Canada, Toronto,43.6534817,-79.3839347
21,22,northwestern university,17951,12.8,20.0,49.0,83.5,74.2,83.8,97.8,78.4,64.1,"633 Clark Street, Evanston, Illinois, 60208, United States",,,,,,United States, Evanston,42.0447388,-87.6930459
22,23,tsinghua university,38783,12.0,11.0,34.0,82.6,86.6,94.0,74.6,100.0,47.4,"1 Qinqhuayuan, Beijing, 100084, China",,,,,,China, Beijing,39.906217,116.3912757
23,24,peking university,39575,11.5,15.0,46.0,82.3,89.1,90.0,73.2,86.6,59.6,"No.5 Yiheyuan Road, Haidian District, Beijing, 100871, China",,,,,,China, Beijing,39.906217,116.3912757
24,25,national university singapore,30869,17.9,28.0,51.0,81.9,76.8,90.4,76.9,58.8,95.5,"21 Lower Kent Ridge Road, 119077, Singapore",,,,,,Singapore, Singapore,1.357107,103.8194992
25,26,university washington,45692,11.1,16.0,53.0,81.6,72.2,82.2,98.6,47.5,60.4,"1410 NE Campus Parkway, Seattle, Washington, 98195-5852, United States",,,,,,United States, Seattle,47.6038321,-122.330062
26,27,carnegie mellon university,13430,13.6,48.0,41.0,81.3,65.9,82.7,98.2,50.5,80.6,"5000 Forbes Ave, Pittsburgh, Pennsylvania, 15213, United States",,,,,,United States, Pittsburgh,40.4416941,-79.9900861
27,27,london school economics and political science,10570,12.1,71.0,53.0,81.3,69.0,83.0,92.8,35.1,93.2,"Houghton Street, London, WC2A 2AE, United Kingdom",,,,,,United Kingdom, London,51.5073359,-0.12765
29,30,university edinburgh,29435,12.8,41.0,60.0,79.4,67.3,74.1,96.4,38.9,93.8,"Old College, South Bridge, Edinburgh, EH8 9YL, United Kingdom",,,,,,United Kingdom, Edinburgh,55.9533456,-3.1883749
30,31,university california san diego,33579,13.0,23.0,46.0,78.8,62.6,78.9,97.7,90.3,63.7,"9500 Gilman Dr, La Jolla, California, 92093, United States",,,,,,United States, La Jolla,32.8401623,-117.2740777
31,32,lmu munich,34519,34.7,17.0,61.0,77.8,68.4,77.0,88.8,100.0,67.2,"Geschwister-Scholl-Platz 1, Munich, 80539, Germany",,,,,,Germany, Munich,48.1371079,11.5753822
32,32,university melbourne,47385,26.3,46.0,56.0,77.8,65.9,74.1,89.8,76.3,93.1,"Grattan Street, Parkville, Victoria, VIC 3010, Australia",,,,,,Australia, Parkville,-37.7871148,144.9515533
33,34,university british columbia,52108,18.1,32.0,55.0,76.3,61.5,73.2,92.5,43.8,94.4,"2900-2424 Main Mall, Vancouver, British Columbia, V6T 1Z4, Canada",,,,,,Canada, Vancouver,49.2608724,-123.113952
34,35,university hong kong,18260,18.2,44.0,54.0,75.9,69.5,77.2,76.6,59.7,98.6,"9/F, Knowles Building Pok Fu Lam Road, Pokfulam, Hong Kong Island, Hong Kong",,,,,,Hong Kong, Hong Kong,22.2793278,114.1628131
35,36,kings college london,26055,12.5,44.0,62.0,75.7,61.3,68.5,94.8,45.6,95.6,"Strand, London, WC2R 2LS, United Kingdom",,,,,,United Kingdom,Strand,51.817725,-2.4107343
36,36,university tokyo,25913,10.6,12.0,,75.7,85.9,89.6,60.7,77.4,38.2,"7-3-1 Hongo, Bunkyo, Tokyo, 113-8654, Japan",,,,,,Japan, Tokyo,35.6812665,139.757653
37,38,ecole polytechnique federale de lausanne,10492,11.4,59.0,28.0,75.4,66.6,66.3,88.3,66.4,98.6,"Route Cantonale, Lausanne, 1015, Switzerland",,,,,,Switzerland, Lausanne,46.5218269,6.6327025
38,38,georgia institute technology,21372,18.3,27.0,33.0,75.4,60.2,76.4,90.4,61.6,77.1,"North Avenue, Atlanta, Georgia, 30332, United States",,,,,,United States, Atlanta,33.7489924,-84.3902644
39,38,university texas austin,49165,17.2,10.0,52.0,75.4,68.2,76.2,93.2,46.6,39.1,"110 Inner Campus Drive, Austin, Texas, 78705, United States",,,,,,United States, Austin,30.2711286,-97.7436995
40,41,karolinska institute,7777,9.0,20.0,68.0,74.7,55.4,71.4,96.1,71.2,81.2,"SE-171 77, Stockholm, Sweden",,,,,,Sweden, Stockholm,59.3251172,18.0710935
41,42,mcgill university,31294,13.0,29.0,58.0,74.3,65.0,71.9,84.7,42.8,90.4,"845 Sherbrooke Street West, Montreal, Quebec, H3A 0G4, Canada",,,,,,Canada, Montreal,45.5031824,-73.5698065
42,43,technical university munich,40472,47.8,27.0,34.0,74.1,64.6,70.4,85.5,100.0,72.9,"Arcisstraße 21, Munich, D-80333, Germany",,,,,,Germany, Munich,48.1371079,11.5753822
43,44,universitat heidelberg,20800,16.1,18.0,54.0,73.5,67.1,60.3,96.2,54.6,67.5,"Grabengasse 1, Heidelberg, Baden-Württemberg, 69117, Germany",,,,,,Germany, Heidelberg,49.4093582,8.694724
44,45,ku leuven,45049,36.3,15.0,50.0,73.2,58.7,73.9,85.3,99.3,71.8,"Oude Markt 13, Leuven, 3000, Belgium",,,,,,Belgium, Leuven,50.879202,4.7011675
45,45,paris sciences et lettres psl research university paris,21298,11.5,26.0,46.0,73.2,71.6,71.4,77.0,52.2,78.7,"60 rue Mazarine, Paris, 75006, France",,,,,,France, Paris,48.8534951,2.3483915
46,47,hong kong university science and technology,10125,22.3,31.0,,73.1,57.4,66.1,89.8,71.9,97.7,"Clear Water Bay, Kowloon, Hong Kong",,,,,,Hong Kong, Kowloon,22.2965739,114.1729841
47,48,university illinois urbana champaign,44916,17.9,24.0,47.0,72.9,63.2,78.0,84.4,47.9,54.3,"901 West Illinois Street, Urbana, Illinois, 61801, United States",,,,,,United States, Urbana,40.1117174,-88.207301
48,48,nanyang technological university singapore,25088,15.9,27.0,48.0,72.9,57.6,70.4,84.9,76.5,95.1,"50 Nanyang Avenue, 639798, Singapore",,,,,,Singapore, Singapore,1.357107,103.8194992
49,50,australian national university,17359,17.8,44.0,52.0,72.1,54.4,69.7,88.4,46.4,95.5,"Acton, Australian Capital Territory, ACT 2601, Australia",,,,,,Australia,Acton,-35.2852323,149.1129681
50,51,university wisconsin madison,39154,10.0,13.0,,72.0,68.8,70.3,85.3,46.3,47.4,"Union South, 1308 W. Dayton St, Madison, Wisconsin, 53715-1149, United States",,,,,,United States, Madison,43.074761,-89.3837613
51,52,washington university st louis,13401,7.5,20.0,,71.5,64.2,57.5,98.8,40.7,57.1,"One Brookings Drive, St. Louis, Missouri, 63130, United States",,,,,,United States, St. Louis,38.6280278,-90.1910154
52,53,brown university,9391,10.8,20.0,,70.0,64.0,56.1,94.9,36.5,61.4,"Providence, Rhode Island, 02912, United States",,,,,,United States,Providence,41.8239891,-71.4128343
53,54,university north carolina chapel hill,35419,9.4,8.0,57.0,69.9,59.7,63.2,96.9,43.9,38.0,"174 Country Club Road, Chapel Hill, North Carolina, 27599, United States",,,,,,United States, Chapel Hill,35.9131542,-79.05578
54,55,university california davis,39164,12.0,14.0,58.0,69.7,62.4,66.9,83.2,51.4,62.4,"1 Shields Avenue, California, 95616, United States",,,,,,United States, California,36.7014631,-118.755997
55,55,university manchester,37040,14.4,40.0,53.0,69.7,56.9,63.8,85.2,44.7,91.0,"Oxford Road, Manchester, Lancashire, M13 9PL, United Kingdom",,,,,,United Kingdom, Manchester,53.4794892,-2.2451148
56,57,university california santa barbara,24089,27.6,16.0,52.0,69.6,47.9,63.6,96.4,84.5,68.1,"Santa Barbara, 552 University Road, California, 93106, United States",,,,,,United States,Santa Barbara,34.4221319,-119.702667
57,57,chinese university hong kong,18340,18.6,32.0,,69.6,55.8,62.8,84.5,55.2,97.8,"Shatin, New Territories, Hong Kong",,,,,,Hong Kong,Shatin,22.4009921,114.2020731
58,59,wageningen university research,13914,21.3,27.0,53.0,69.4,49.3,57.1,96.1,100.0,81.9,"Droevendaalsesteeg 4, Building nr. 104, Wageningen, 6702 PB, Netherlands",,,,,,Netherlands, Wageningen,51.9685817,5.668298061827958
59,60,university sydney,45111,20.1,39.0,58.0,69.3,51.0,61.5,90.7,67.7,89.2,"Sydney, New South Wales, 2006, Australia",,,,,,Australia,Sydney,-33.8698439,151.2082848
60,61,boston university,25662,11.6,27.0,60.0,68.5,57.3,55.6,95.7,41.4,64.4,"One Silber Way, Boston, Massachusetts, 02215, United States",,,,,,United States, Boston,42.3554334,-71.060511
62,62,university southern california,36929,11.7,25.0,53.0,68.1,54.7,59.3,93.1,39.7,66.2,"University of Southern Califor, Los Angeles, California, 90089, United States",,,,,,United States, Los Angeles,34.0536909,-118.242766
63,64,seoul national university,26182,12.4,12.0,,68.0,72.3,71.6,66.5,86.6,35.8,"1 Gwanak-ro, Gwanak-gu, Seoul, 08826, South Korea",,,,,,South Korea, Seoul,37.5666791,126.9782914
64,65,kyoto university,22566,9.0,9.0,24.0,67.7,73.7,78.1,59.9,66.2,33.7,"Yoshida-honmachi, Sakyo-ku, Kyoto, 606-8501, Japan",,,,,,Japan, Kyoto,35.021041,135.7556075
65,66,university queensland,39144,35.7,34.0,55.0,67.4,49.3,58.7,86.8,80.9,92.5,"Brisbane St Lucia, Brisbane, Queensland, QLD 4072, Australia",,,,,,Australia, Brisbane,-27.4689682,153.0234991
67,67,leiden university,28741,18.7,16.0,59.0,66.7,48.3,65.0,83.1,72.7,79.4,"PO Box 9500, Leiden, 2300, Netherlands",,,,,,Netherlands, Leiden,52.1594747,4.4908843
68,69,erasmus university rotterdam,23167,20.4,23.0,51.0,66.3,39.4,57.3,97.1,63.6,87.3,"Burgemeester Oudlaan 50, Rotterdam, 3062 PA, Netherlands",,,,,,Netherlands, Rotterdam,51.9244424,4.47775
69,70,ohio state university main campus,54372,12.5,13.0,50.0,66.1,57.5,56.1,87.3,53.3,59.5,"281 W. Lane Ave, Columbus, Ohio, 43210, United States",,,,,,United States, Columbus,39.9622601,-83.0007065
70,71,unsw sydney,44336,35.7,41.0,47.0,65.9,50.2,58.2,82.9,57.9,93.7,"High St, Kensington, Sydney, New South Wales, NSW 2052, Australia",,,,,,Australia, Kensington,-33.9117191,151.2195058
71,72,mcmaster university,24412,28.1,17.0,55.0,65.4,44.5,50.1,94.8,94.0,82.7,"1280 Main Street West, Hamilton, Ontario, L8S 4L8, Canada",,,,,,Canada, Hamilton,43.2560802,-79.8728583
74,75,monash university,52989,33.9,39.0,57.0,64.7,47.3,56.6,83.8,67.2,89.9,"Wellington Rd, Clayton, Victoria, 3800, Australia",,,,,,Australia, Clayton,-37.9142211,145.1268559
76,77,university warwick,20600,13.2,41.0,49.0,64.6,46.9,52.7,88.8,42.8,93.8,"Gibbert Hall Road, Coventry, Warwickshire, CV4 7AL, United Kingdom",,,,,,United Kingdom, Coventry,52.4081812,-1.510477
77,78,penn state main campus,46204,15.3,16.0,46.0,64.2,55.2,67.1,75.7,52.1,47.4,"201 Old Main, University Park, Pennsylvania, 16802, United States",,,,,,United States, University Park,41.4400344,-87.683377
78,79,university minnesota,61120,12.4,11.0,52.0,64.1,55.2,59.3,82.7,78.2,40.2,"3 Morrill Hall, 100 Church St. S.E., Minneapolis, Minnesota, 55455, United States",,,,,,United States, Minneapolis,44.9772995,-93.2654692
80,80,emory university,12735,4.0,20.0,58.0,64.0,56.0,40.4,98.8,45.4,57.9,"201 Dowman Drive, Atlanta, Georgia, 30322, United States",,,,,,United States, Atlanta,33.7489924,-84.3902644
81,80,university science and technology china,16245,7.7,4.0,,64.0,64.6,59.5,74.7,79.6,31.3,"No.96 Jinzhai Road, Hefei, Anhui, 230026, China",,,,,,China, Hefei,31.8228094,117.2218033
82,80,sorbonne university,43076,13.5,19.0,58.0,64.0,62.3,50.6,79.9,38.4,69.2,"21 Rue de l'Ecole-de-Medecine, Paris, 75006, France",,,,,,France, Paris,48.8534951,2.3483915
83,84,michigan state university,44789,16.5,16.0,51.0,63.9,56.6,57.4,80.0,37.8,63.3,"220 Trowbridge Rd, East Lansing, Michigan, 48824, United States",,,,,,United States, East Lansing,42.7320307,-84.4721678
84,85,university montreal,36794,20.2,22.0,,63.4,48.2,49.7,86.4,70.0,84.1,"2900, boul., Édouard-Montpetit, Montréal, Quebec, H3T 1J4, Canada",,,,,,Canada, Montréal,45.5031824,-73.5698065
86,87,university bristol,21785,13.6,27.0,54.0,63.2,41.8,48.4,95.5,40.9,86.6,"Beacon House, Queens Road, Bristol, Avon, BS8 1QU, United Kingdom",,,,,,United Kingdom, Bristol,51.4538022,-2.5972985
87,88,purdue university west lafayette,40451,15.7,23.0,43.0,63.1,57.5,66.4,63.0,64.3,72.0,"610 Purdue Mall, West Lafayette, Indiana, 47907, United States",,,,,,United States, West Lafayette,40.4258686,-86.9080655
88,89,sungkyunkwan university skku,23342,19.5,15.0,43.0,63.0,57.6,61.2,70.3,97.3,51.1,"25-2 Sungkyunkwan-Ro, Jongno-gu, Seoul, 561-758, South Korea",,,,,,South Korea, Seoul,37.5666791,126.9782914
90,91,university maryland college park,33108,16.6,11.0,48.0,62.7,46.9,59.1,89.6,39.2,41.2,"College Park, MD 20742, Prince George's County, Maryland, 20742, United States",,,,,,United States,College Park,38.980666,-76.9369189
92,93,ecole polytechnique,3030,5.7,40.0,22.0,62.5,59.6,49.1,70.2,69.6,95.2,"Route de Saclay, Palaiseau, 91128, France",,,,,,France, Palaiseau,48.7144587,2.2453842
94,94,dartmouth college,6247,7.7,15.0,49.0,62.4,58.4,39.9,96.4,41.0,39.6,"Hanover, New Hampshire, 03755, United States",,,,,,United States,Hanover,37.744783,-77.4464165
95,96,university california irvine,32706,16.5,26.0,52.0,62.3,43.3,46.5,94.9,58.9,71.9,"Irvine, California, 92697, United States",,,,,,United States,Irvine,33.6856969,-117.8259819
98,99,university glasgow,25355,15.4,37.0,59.0,62.2,41.1,47.9,91.8,40.0,92.3,"Glasgow, G12 8QQ, United Kingdom",,,,,,United Kingdom,Glasgow,55.8606182,-4.2497933
100,101,university copenhagen,31219,4.3,17.0,57.0,62.1,48.1,44.1,89.6,48.1,85.4,"Nørregade 10 Postboks 2177, 1017 København K, Denmark",,,,,,Denmark, Denmark,55.670249,10.3333283
102,102,uppsala university,25438,16.7,15.0,57.0,61.9,41.6,56.4,85.0,74.6,68.1,"P.O. Box 256, SE-751 05, Uppsala, Sweden",,,,,,Sweden, Uppsala,59.8586126,17.6387436
103,104,university arizona,39124,18.4,10.0,52.0,61.8,52.6,53.7,85.3,52.7,40.2,"Tucson, Arizona, AZ 85721, United States",,,,,,United States,Tucson,32.2228765,-110.9748477
105,105,rice university,6667,8.9,28.0,42.0,61.6,49.1,39.7,93.7,45.4,77.0,"6100 Main Street, Houston, Texas, 77005-1827, United States",,,,,,United States, Houston,29.7589382,-95.3676974
106,107,university virginia main campus,23116,8.6,12.0,52.0,61.5,54.4,43.5,91.3,41.6,48.9,"400 Ray C. Hunt Drive, P.O. Box 400229, Charlottesville, Virginia, 22904-4229, United States",,,,,,United States, Charlottesville,38.029306,-78.4766781
107,107,zhejiang university,33427,10.7,22.0,23.0,61.5,66.0,64.7,50.6,100.0,61.8,"866 Yuhangtang Road Hangzhou, Zhejiang Province, Zhejiang, 310058, China",,,,,,China, China,35.000074,104.999927
108,109,fudan university,32537,11.2,12.0,53.0,61.4,61.9,58.6,68.1,58.6,44.8,"220 Handan Road, Shanghai, 200433, China",,,,,,China, Shanghai,31.2323437,121.4691024
109,110,korea advanced institute science and technology kaist,9481,10.2,8.0,20.0,61.3,62.6,66.4,58.1,99.9,35.5,"291 Daehak-ro, Daejeon, 34141, South Korea",,,,,,South Korea, Daejeon,36.3497007,127.3849016
110,110,queen mary university london,17800,14.1,43.0,54.0,61.3,35.3,43.1,98.0,44.1,96.7,"QMUL Accounts Payable, PO Box 68942, London, E1W 9JD, United Kingdom",,,,,,United Kingdom, London,51.5073359,-0.12765
111,112,university birmingham,29540,15.5,29.0,57.0,60.9,39.6,45.6,92.1,39.3,89.2,"Chancellors Court, Edgbaston, Birmingham, West Midlands, B15 2TT, United Kingdom",,,,,,United Kingdom, Birmingham,52.4796992,-1.9026911
113,113,university pittsburgh pittsburgh campus,26652,5.8,11.0,51.0,60.4,47.4,45.5,95.1,40.7,39.3,"4200 Fifth Avenue, Pittsburgh, Pennsylvania, 15260, United States",,,,,,United States, Pittsburgh,40.4416941,-79.9900861
114,115,aarhus university,26842,14.4,9.0,55.0,60.3,37.2,54.0,85.4,66.7,74.8,"Nordre Ringgade 1 8000 Aarhus C, DK - Denmark, Denmark",,,,,,Denmark, Denmark,55.670249,10.3333283
115,116,vanderbilt university,12006,3.0,14.0,54.0,60.2,48.7,42.1,95.4,47.5,43.0,"Nashville, Tennessee, 37240, United States",,,,,,United States,Nashville,36.1622767,-86.7742984
117,117,university sheffield,26220,15.0,34.0,50.0,60.1,45.2,46.4,83.0,45.8,87.3,"Western Bank, Sheffield, South Yorkshire, S10 2TN, United Kingdom",,,,,,United Kingdom, Sheffield,53.3806626,-1.4702278
118,119,case western reserve university,10654,8.8,23.0,50.0,60.0,48.4,39.9,95.3,42.1,52.2,"10900 Euclid Ave, Cleveland, Ohio, 44106, United States",,,,,,United States, Cleveland,41.4996574,-81.6936772
119,120,university adelaide,21093,29.9,29.0,49.0,59.9,34.3,41.6,95.3,64.8,91.7,"North Terrace, Adelaide, South Australia, SA 5005, Australia",,,,,,Australia, Adelaide,-34.9281805,138.5999312
120,120,national taiwan university ntu,27254,11.1,11.0,40.0,59.9,57.0,62.7,64.0,65.4,41.9,"No. 1, Sec 4, Roosevelt Road, Taipei, 10617, Taiwan",,,,,,Taiwan, Taipei,25.0375198,121.5636796
121,122,university southampton,23865,13.7,34.0,53.0,59.8,40.2,44.3,88.0,40.1,94.2,"University Road, Southampton, Hampshire, SO17 1BJ, United Kingdom",,,,,,United Kingdom, Southampton,50.9025349,-1.404189
123,124,university colorado boulder,33186,16.3,11.0,44.0,59.6,44.8,45.6,93.1,41.7,47.3,"Boulder, Colorado, 80309, United States",,,,,,United States,Boulder,40.0149856,-105.270545
128,128,university york,16060,14.9,24.0,56.0,58.9,40.3,46.6,85.1,36.4,85.4,"Heslington, York, Yorkshire, YO10 5DD, United Kingdom",,,,,,United Kingdom,Heslington,53.9443862,-1.0466265
129,130,universite paris cite,61390,15.5,17.0,64.0,58.8,52.0,36.1,88.3,35.6,66.6,"85 boulevard Saint-Germain, cedex 06, Paris, Ile-de-France, 75006, France",,,,,,France, Paris,48.8534951,2.3483915
130,131,university oslo,20783,12.6,17.0,62.0,58.7,39.6,43.8,90.0,40.7,75.5,"P.O. Box 1072 Blindern, 0316 Oslo, Norway",,,,,,Norway, Norway,61.1529386,8.7876653
131,131,university western australia,18400,23.2,29.0,49.0,58.7,32.5,43.9,91.0,57.0,94.3,"35 Stirling Highway, Crawley, Perth, Western Australia, WA 6009, Australia",,,,,,Australia, Crawley,-31.9746305,115.8175988
132,133,durham university,16965,14.8,30.0,55.0,58.5,45.5,47.8,75.5,37.9,91.7,"Stockton Road, Durham, County Durham, DH1 3LE, United Kingdom",,,,,,United Kingdom, Durham,54.666667,-1.75
133,134,indiana university,66872,13.6,15.0,52.0,58.4,50.8,49.7,76.7,49.8,53.5,"IU Bloomington, 107 S. Indiana Ave, Bloomington, Indiana, 47405-7000, United States",,,,,,United States, Bloomington,39.1670396,-86.5342881
134,134,university vienna,33547,40.2,27.0,66.0,58.4,48.1,55.3,64.6,37.1,94.2,"Universitätsring 1 1010, Vienna, Austria",,,,,,Austria, Vienna,48.2083537,16.3725042
135,136,university alberta,31919,21.0,26.0,55.0,58.2,47.9,48.8,70.3,60.5,87.5,"116 St. and 85 Ave., Edmonton, AB, T6G 2R, Canada",,,,,,Canada, Edmonton,53.5462055,-113.491241
136,136,university cape town,21812,11.9,17.0,53.0,58.2,33.2,42.8,90.3,85.3,81.8,"Private Bag X3, Rondebosch, Cape Town, 7701, South Africa",,,,,,South Africa, Rondebosch,-33.9680556,18.4877778
137,138,vrije universiteit amsterdam,23025,16.5,10.0,58.0,58.1,35.7,48.1,88.4,52.5,68.8,"De Boelelaan 1105, Amsterdam, 1081 HV, Netherlands",,,,,,Netherlands, Amsterdam,52.3730796,4.8924534
138,139,lancaster university,12655,12.5,38.0,51.0,58.0,34.7,39.4,92.5,36.0,94.2,"Bailrigg, Lancaster, Lancashire, LA1 4YW, United Kingdom",,,,,,United Kingdom, Lancaster,54.0484068,-2.7990345
139,139,tufts university,11017,9.8,16.0,55.0,58.0,49.1,34.2,94.4,38.6,49.6,"419 Boston Avenue, Dowling Hall Garage, Medford, Massachusetts, 02155-5555, United States",,,,,,United States, Medford,42.4184296,-71.1061639
140,141,university ottawa,35365,24.7,19.0,59.0,57.9,41.3,42.0,86.2,46.5,77.7,"75 Laurier Avenue East, Ottawa, Ontario, K1N 6N5, Canada",,,,,,Canada, Ottawa,45.4208777,-75.6901106
141,141,ulm university,10629,27.7,13.0,48.0,57.9,40.6,36.6,94.9,75.7,57.5,"Helmholtzstraße 16, Ulm, 89081, Germany",,,,,,Germany, Ulm,48.3974003,9.9934336
142,143,pompeu fabra university,11636,21.6,13.0,60.0,57.8,37.7,40.1,94.4,44.5,66.5,"Carrer de la Mercè, 12, Barcelona, 08002, Spain",,,,,,Spain, Barcelona,41.3828939,2.1774322
144,144,nanjing university,34569,15.5,10.0,44.0,57.6,50.7,48.0,71.8,84.9,57.8,"22 Hankou Road, Nanjing, Jiangsu, 210093, China",,,,,,China, Nanjing,32.0615513,118.7915619
145,146,university exeter,21450,17.6,28.0,54.0,57.4,33.9,38.9,92.4,37.8,91.9,"Stocker Road, Exeter, Devon, EX4 4PY, United Kingdom",,,,,,United Kingdom, Exeter,50.7255794,-3.5269497
146,146,pohang university science and technology postech,3215,10.3,3.0,23.0,57.4,51.7,50.9,72.2,99.6,32.9,"77 Cheongam-Ro Nam-Gu, Pohang, Gyeongbuk, 790-784, South Korea",,,,,,South Korea, Pohang,36.0189315,129.3429384
147,146,university sussex,14980,16.1,39.0,54.0,57.4,35.3,37.9,91.8,35.9,93.6,"Sussex House, Falmer, Brighton, East Sussex, BN1 9RH, United Kingdom",,,,,,United Kingdom, Brighton,50.8214626,-0.1400561
149,149,santanna school advanced studies pisa,776,12.4,19.0,35.0,57.3,45.0,42.3,82.5,84.7,56.0,"Piazza Martiri della Libertà,, Pisa, 56127, Italy",,,,,,Italy, Pisa,43.7159395,10.4018624
151,152,universite catholique de louvain,26235,39.3,20.0,53.0,57.2,38.8,51.5,75.7,53.7,80.5,"1 Place de l'Université, Louvain-la-Neuve, B-1348, Belgium",,,,,,Belgium, Louvain-la-Neuve,50.6741689,4.613790587187648
154,155,arizona state university tempe,46683,21.1,21.0,43.0,57.1,39.3,50.7,81.6,38.5,61.8,"Tempe, Arizona, 85287, United States",,,,,,United States,Tempe,33.4255117,-111.9400164
155,155,university leeds,30235,14.2,29.0,61.0,57.1,41.1,45.9,78.0,39.9,87.5,"171-173 Woodhouse Lane, Leeds, West Yorkshire, LS2 9JT, United Kingdom",,,,,,United Kingdom, Leeds,53.7974185,-1.5437941
156,157,autonomous university barcelona,31877,12.6,16.0,59.0,56.9,40.9,36.1,92.9,44.8,64.3,"Placa Civica, Campus de la UAB, Barcelona, 08193, Spain",,,,,,Spain, Barcelona,41.3828939,2.1774322
157,157,university cologne,36965,36.5,16.0,63.0,56.9,43.6,42.9,81.5,70.6,62.9,"University of Cologne Zentraler Rechnungseingang, Postfach 41 09 24, Cologne, 50869, Germany",,,,,,Germany, Cologne,50.938361,6.959974
159,157,university notre dame,12104,13.7,12.0,45.0,56.9,52.9,46.2,73.5,38.1,55.3,"Notre Dame, Indiana, 46556, United States",,,,,,United States,Notre Dame,41.70456775,-86.23822026017265
160,157,shanghai jiao tong university,38853,11.1,13.0,44.0,56.9,58.0,63.0,47.9,99.9,49.8,"800 Dongchuan RD Minhang District, Shanghai, Shanghai, China",,,,,,China, Shanghai,31.2323437,121.4691024
162,163,university wurzburg,24082,36.6,10.0,56.0,56.8,38.7,42.4,87.5,65.6,61.5,"Sanderring 2, Würzburg, 97070, Germany",,,,,,Germany, Würzburg,49.79245,9.932966
163,164,trinity college dublin,16853,21.9,30.0,59.0,56.4,41.7,43.9,75.4,41.2,94.4,"Dublin 2, Dublin, D02 PN40, Ireland",,,,,,Ireland, Dublin,53.3498006,-6.2602964
164,165,university liverpool,23055,13.8,33.0,55.0,56.3,35.2,37.5,88.8,38.8,92.2,"Foundation Building, Brownlow Hill, Liverpool, L69 7ZX, United Kingdom",,,,,,United Kingdom, Liverpool,53.4071991,-2.99168
166,166,university leicester,14645,14.3,32.0,53.0,56.1,30.1,34.8,96.2,38.1,90.7,"University Road, Leicester, Leicestershire, LE1 7RH, United Kingdom",,,,,,United Kingdom, Leicester,52.6362,-1.1331969
167,168,university aberdeen,12400,15.7,39.0,57.0,56.0,30.4,33.3,95.2,45.8,95.7,"King's College, Aberdeen, Aberdeenshire, AB24 3FX, United Kingdom",,,,,,United Kingdom, Aberdeen,57.1482429,-2.0928095
168,168,university bologna,65819,24.0,12.0,56.0,56.0,51.5,34.8,83.8,45.1,50.7,"Via Zamboni 33, Bologna, 40126, Italy",,,,,,Italy, Bologna,44.4938203,11.3426327
169,168,rutgers university new brunswick 0,44801,11.2,17.0,52.0,56.0,47.8,48.5,73.9,41.1,51.5,"83 Somerset Street, New Brunswick, New Jersey, 08901-1281, United States",,,,,,United States, New Brunswick,40.4862174,-74.4518173
170,171,hong kong polytechnic university,20388,23.1,25.0,52.0,55.9,41.0,46.6,71.8,42.3,94.1,"11 Yuk Choi Road, Hung Hom, Kowloon, Hong Kong",,,,,,Hong Kong, Kowloon,22.2965739,114.1729841
171,172,university alabama birmingham,16927,16.7,6.0,62.0,55.7,39.2,33.6,97.3,74.8,37.4,"1720 2nd Ave South, Birmingham, Alabama, 35294, United States",,,,,,United States, Birmingham,33.5206824,-86.8024326
172,173,northeastern university us,19575,13.9,35.0,49.0,55.6,38.0,27.9,97.5,38.0,75.0,"360 Huntington Ave, Boston, Massachusetts, 02115, United States",,,,,,United States, Boston,42.3554334,-71.060511
173,173,university rochester,9824,4.2,31.0,49.0,55.6,43.4,30.3,91.4,40.9,67.2,"Rochester, New York, 14627, United States",,,,,,United States,Rochester,43.157285,-77.615214
174,175,university florida,46642,16.8,10.0,55.0,55.4,54.0,53.8,61.9,57.9,40.0,"Gainesville, Florida, 32611, United States",,,,,,United States,Gainesville,29.6519684,-82.3249846
175,175,karlsruhe institute technology,27255,25.6,22.0,28.0,55.4,45.4,47.8,66.5,91.3,69.1,"Kaiserstraße 12, Karlsruhe, 76131, Germany",,,,,,Germany, Karlsruhe,49.0068705,8.4034195
176,175,stockholm university,27185,19.5,14.0,,55.4,30.0,46.4,85.0,36.6,81.3,"SE-106 91, Stockholm, Sweden",,,,,,Sweden, Stockholm,59.3251172,18.0710935
177,178,texas am university,60818,24.8,8.0,47.0,55.3,49.3,54.8,62.8,45.3,54.3,"Rudder Tower, 401 Joe Routt Blvd, College Station, Texas, 77843-1372, United States",,,,,,United States, College Station,30.5955289,-96.3071042
178,179,university auckland,32821,22.1,32.0,56.0,55.2,31.4,43.9,80.2,62.4,94.0,"Private Bag 92019, Auckland, 1142, New Zealand",,,,,,New Zealand, Auckland,-36.852095,174.7631803
179,179,university california santa cruz,18783,23.0,10.0,50.0,55.2,33.1,34.9,97.7,39.1,60.6,"1156 High Street, Santa Cruz, California, 95064, United States",,,,,,United States, Santa Cruz,37.050096,-121.9905908
180,179,korea university,22965,16.0,22.0,,55.2,48.4,50.2,64.5,93.9,52.0,"145 Anam-ro, Seongbuk-gu, Seoul, 02841, South Korea",,,,,,South Korea, Seoul,37.5666791,126.9782914
181,179,queensland university technology,34871,38.2,16.0,54.0,55.2,31.9,40.3,86.4,62.4,81.4,"2 George Street, Brisbane, Queensland, QLD 4000, Australia",,,,,,Australia, Brisbane,-27.4689682,153.0234991
182,183,university erlangen nuremberg,38111,57.0,12.0,48.0,54.9,41.1,45.8,75.2,89.6,52.9,"Schlossplatz 4, Erlangen, 91054, Germany",,,,,,Germany, Erlangen,49.5928616,11.0056
184,184,technical university denmark,9265,6.6,25.0,30.0,54.8,39.4,40.2,73.8,71.6,92.8,"Anker Engelunds Vej 1, 2800 Kgs. Lyngby, Denmark",,,,,,Denmark, Denmark,55.670249,10.3333283
185,186,eindhoven university technology,8917,20.7,19.0,,54.7,44.6,48.8,61.0,99.8,78.3,"Postbus 513, Eindhoven, 5600, Netherlands",,,,,,Netherlands, Eindhoven,51.44855695,5.450122521857143
186,186,university gothenburg,19677,10.2,13.0,,54.7,27.5,41.5,93.5,40.1,65.7,"PO Box 100, SE-405 30, Gothenburg, Sweden",,,,,,Sweden, Gothenburg,57.7072326,11.9670171
187,188,telecom paris,923,5.6,39.0,21.0,54.6,42.6,38.3,74.4,76.6,81.7,"19 place Marguerite Perey F-91120, Palaiseau, France",,,,,,France, Palaiseau,48.7144587,2.2453842
191,192,university east anglia,15195,13.9,28.0,60.0,54.2,28.3,30.1,97.2,35.7,87.7,"Norwich Research Park, Norwich, Norfolk, NR4 7TJ, United Kingdom",,,,,,United Kingdom, Norwich,52.6285576,1.2923954
192,193,university canberra,10823,36.2,32.0,,54.1,25.2,31.1,99.2,38.6,86.9,"University Drive, Bruce, Australian Capital Territory, ACT 2617, Australia",,,,,,Australia, Bruce,-35.2453517,149.0916334
193,194,university duisburg essen,42698,53.0,19.0,48.0,54.0,34.4,32.8,91.8,71.6,60.0,"Universitätsstraße 2, Essen, 45141, Germany",,,,,,Germany, Essen,51.4582235,7.0158171
194,194,university technology sydney,26385,43.4,34.0,51.0,54.0,33.5,42.9,75.3,50.3,96.1,"15 Broadway, Ultimo, New South Wales, NSW 2007, Australia",,,,,,Australia, Ultimo,-33.8794728,151.1984346
195,194,university witwatersrand,28521,26.3,8.0,56.0,54.0,31.2,43.2,78.8,100.0,73.7,"1 Jan Smuts Avenue, Braamfontein 2000, Johannesburg, South Africa",,,,,,South Africa, Johannesburg,-26.205,28.049722
196,197,yonsei university seoul campus,17744,14.6,22.0,47.0,53.9,51.2,52.6,53.0,98.9,58.4,"50 Yonsei-ro, Seodaemun-gu, Seoul, 03722, South Korea",,,,,,South Korea, Seoul,37.5666791,126.9782914
197,198,university antwerp,15166,29.3,17.0,55.0,53.8,35.6,44.5,75.8,72.2,69.6,"Prinsstraat 13, 2000 Antwerpen, Belgium",,,,,,Belgium, Belgium,50.6402809,4.6667145
198,198,cardiff university,25500,13.5,27.0,59.0,53.8,32.5,35.5,87.1,37.8,85.1,"Park Place, Cardiff, CF10 3AT, United Kingdom",,,,,,United Kingdom, Cardiff,51.4816546,-3.1791934
199,198,george washington university,23488,13.1,18.0,60.0,53.8,48.6,32.4,81.5,35.0,55.5,"1918 F Street, NW, Washington, District of Columbia, 20052, United States",,,,,,United States, Washington,38.8950368,-77.0365427
201,198,university st andrews,9215,12.7,46.0,58.0,53.8,42.2,41.8,67.8,37.6,96.6,"College Gate, St. Andrews, Fife, KY16 9AJ, United Kingdom",,,,,,United Kingdom, Fife,56.3333331,-3.0000001
202,201,aalborg university,16340,13.6,15.0,,53.7,28.5,39.1,87.1,48.0,75.1,"Fredrik Bajers Vej 5 P.O. Box 159, DK - 9100 Aalborg, Denmark",,,,,,Denmark, Denmark,55.670249,10.3333283
203,201,university barcelona,46214,11.8,10.0,62.0,53.7,37.3,32.5,87.6,41.2,54.7,"Gr. Via de les Corts Catalanes, 585, Barcelona, 08007, Spain",,,,,,Spain, Barcelona,41.3828939,2.1774322
204,201,university bergen,14007,12.5,14.0,60.0,53.7,29.5,29.4,94.1,37.1,78.3,"PO Box 7800, 5020 Bergen, Norway",,,,,,Norway, Norway,61.1529386,8.7876653
205,201,brandeis university,5375,12.2,27.0,57.0,53.7,28.5,22.9,100.0,35.6,53.4,"415 South St., Waltham, Massachusetts, 02453, United States",,,,,,United States, Waltham,42.3756401,-71.2358004
206,201,university calgary,28560,16.0,19.0,,53.7,33.9,34.2,84.7,48.1,77.2,"2500 University Drive. NW, Calgary, Alberta, T2N 1N4, Canada",,,,,,Canada, Calgary,51.0460954,-114.065465
207,201,copenhagen business school,16317,30.9,25.0,48.0,53.7,25.3,32.4,83.7,43.6,92.2,"Solbjerg Plads 3, DK-2000 Frederiksberg, Denmark",,,,,,Denmark, Denmark,55.670249,10.3333283
208,201,university dundee,12120,17.6,22.0,63.0,53.7,24.8,31.2,90.5,46.5,80.4,"Nethergate, Dundee, DD1 4HN, United Kingdom",,,,,,United Kingdom, Dundee,56.4605938,-2.97019
211,201,university hawaii manoa,15054,10.8,10.0,57.0,53.7,36.3,38.9,73.8,51.5,65.5,"2500 Campus Road, Honolulu, Hawaii, HI 96822, United States",,,,,,United States, Honolulu,21.304547,-157.855676
212,201,hebrew university jerusalem,16137,12.0,5.0,56.0,53.7,48.2,45.1,62.3,41.4,60.3,"Jerusalem, 9190501, Israel",,,,,,Israel,Jerusalem,31.79592425,35.21198075969497
214,201,howard university,8449,7.5,8.0,65.0,53.7,42.8,15.3,99.0,34.4,34.0,"2400 Sixth Street, NW, Washington, District of Columbia, 20059, United States",,,,,,United States, Washington,38.8950368,-77.0365427
215,201,university iowa,28945,11.6,12.0,52.0,53.7,43.1,29.5,82.3,54.0,46.5,"Jessup Hall, Iowa City, Iowa, 52245, United States",,,,,,United States, Iowa City,41.6612561,-91.5299106
217,201,king abdulaziz university,32853,7.9,21.0,54.0,53.7,29.5,16.5,96.4,78.9,93.1,"P.O. Box 80200, Jeddah, 21589, Saudi Arabia",,,,,,Saudi Arabia, Jeddah,21.5810088,39.1653612
218,201,university konstanz,11387,56.1,13.0,55.0,53.7,38.8,44.2,66.4,72.1,65.6,"Universitätsstraße 10, Konstanz, 78464, Germany",,,,,,Germany, Konstanz,47.659216,9.1750718
219,201,kth royal institute technology,12659,15.7,20.0,33.0,53.7,40.5,42.7,62.3,50.5,89.0,"Brinellvägen 8, Stockholm, 100 44, Sweden",,,,,,Sweden, Stockholm,59.3251172,18.0710935
220,201,universite libre de bruxelles,27194,36.2,34.0,56.0,53.7,30.2,41.5,73.6,42.7,87.0,"Avenue Franklin Roosevelt 50, 1050 Bruxelles, Belgium",,,,,,Belgium, Belgium,50.6402809,4.6667145
221,201,university luxembourg,4654,18.7,49.0,51.0,53.7,37.9,36.5,75.8,45.2,99.7,"2, avenue de l'Université, L-4365 Esch-sur-Alzette, Luxembourg",,,,,,Luxembourg, Luxembourg,49.6112768,6.129799
222,201,macquarie university,30234,68.6,29.0,52.0,53.7,37.8,42.6,71.8,53.1,83.9,"Balaclava Rd, North Ryde, Sydney, New South Wales, NSW 2109, Australia",,,,,,Australia, North Ryde,-33.7975472,151.127306
223,201,university massachusetts,61204,13.0,15.0,48.0,53.7,38.5,31.1,87.0,49.9,61.7,"One Beacon Street, 31st Floor, Boston, Massachusetts, MA 02108, United States",,,,,,United States, Boston,42.3554334,-71.060511
225,201,medical university vienna,7142,8.1,30.0,52.0,53.7,33.4,23.5,90.3,53.0,78.8,"Spitalgasse 23, Vienna, 1090, Austria",,,,,,Austria, Vienna,48.2083537,16.3725042
226,201,university miami,15971,6.3,16.0,52.0,53.7,44.0,25.2,83.2,41.3,59.1,"Coral Gables, Florida, 33124, United States",,,,,,United States,Coral Gables,25.72149,-80.2683838
228,201,newcastle university,22690,14.1,27.0,51.0,53.7,31.5,36.2,85.5,41.7,87.8,"Armstrong Building, Newcastle upon Tyne, Tyne and Wear, NE1 7RU, United Kingdom",,,,,,United Kingdom, Newcastle upon Tyne,54.9738474,-1.6131572
230,201,university padua,45169,21.3,4.0,55.0,53.7,42.5,30.9,80.2,38.4,45.1,"Via 8 Febbraio 2, Padova, 35122, Italy",,,,,,Italy, Padova,45.4077172,11.8734455
232,201,queens university belfast,17745,17.2,36.0,55.0,53.7,31.2,35.5,83.7,38.7,96.4,"University Road, Belfast, BT7 1NN, United Kingdom",,,,,,United Kingdom, Belfast,54.596391,-5.9301829
234,201,university reading,14105,14.9,31.0,57.0,53.7,32.1,35.2,76.9,40.3,91.9,"Whiteknights House Whiteknights, PO Box 217, Reading, Berkshire, RG6 6AH, United Kingdom",,,,,,United Kingdom, Reading,51.456659,-0.9696512
235,201,st georges university london,3225,14.7,21.0,62.0,53.7,24.0,22.0,98.2,36.9,79.6,"Cranmer Terrace, London, SW17 0RE, United Kingdom",,,,,,United Kingdom, London,51.5073359,-0.12765
236,201,university south florida tampa,33885,18.9,14.0,,53.7,30.5,34.2,87.3,89.0,54.7,"4202 E. Fowler Avenue, Tampa, Florida, 33620, United States",,,,,,United States, Tampa,27.9477595,-82.458444
239,201,ulsan national institute science and technology unist,4127,13.9,8.0,26.0,53.7,27.8,38.6,91.3,80.5,51.9,"50, UNIST-gil, Ulju-gun, Ulsan, 44919, South Korea",,,,,,South Korea, Ulsan,35.5391697,129.3119136
240,201,university college dublin,22541,23.1,29.0,,53.7,30.8,36.5,73.6,43.9,92.5,"Belfield, Dublin 4, Ireland",,,,,,Ireland,Belfield,53.9695911,-6.3894603
241,201,university utah,30365,14.2,8.0,47.0,53.7,39.0,34.7,86.4,48.3,33.0,"201 Presidents Circle, Salt Lake City, Utah, 84112, United States",,,,,,United States, Salt Lake City,40.7596198,-111.886797
242,201,virginia polytechnic institute and state university,32838,18.3,14.0,43.0,53.7,37.5,42.3,70.9,47.5,54.0,"Blacksburg, Virginia, 24061, United States",,,,,,United States,Blacksburg,37.2296566,-80.4136767
243,201,vita salute san raffaele university,2610,10.7,3.0,59.0,53.7,38.7,22.4,97.6,35.9,43.1,"Via Olgettina 58, Milano, 20123, Italy",,,,,,Italy, Italy,42.6384261,12.674297
244,201,vrije universiteit brussel,11371,28.4,22.0,54.0,53.7,37.4,42.3,62.7,87.0,75.4,"Pleinlaan 2, 1050 Brussel, Belgium",,,,,,Belgium, Belgium,50.6402809,4.6667145
245,201,wake forest university,7675,4.0,9.0,53.0,53.7,42.8,18.8,94.1,43.6,31.2,"1834 Wake Forest Road, Winston-Salem, North Carolina, 27106, United States",,,,,,United States, Winston-Salem,36.0998131,-80.2440518
246,201,university waterloo,33519,23.6,20.0,47.0,53.7,35.0,42.1,66.3,45.1,84.1,"University of Waterloo, 200 University Avenue West, Waterloo, Ontario, N2L 3G1, Canada",,,,,,Canada, Waterloo,43.4652699,-80.5222961
247,201,western university,29865,23.1,18.0,56.0,53.7,40.2,35.7,76.4,59.1,80.0,"1151 Richmond Street, London, Ontario, N6A 3K7, Canada",,,,,,Canada, London,42.9832406,-81.243372
248,201,william mary,8235,11.4,9.0,55.0,53.7,47.5,21.1,87.4,35.3,37.3,"P.O. Box 8795, Williamsburg, Virginia, 23187-8795, United States",,,,,,United States, Williamsburg,37.2708788,-76.7074042
249,201,university wollongong,18642,31.5,29.0,52.0,53.7,29.9,35.0,75.5,55.7,93.4,"Northfields Ave, Wollongong, New South Wales, NSW 2522, Australia",,,,,,Australia, Wollongong,-34.4278083,150.893054
252,251,autonomous university madrid,29576,13.4,14.0,61.0,50.0,40.1,28.7,74.5,38.6,51.5,"Madrid, 28049, Spain",,,,,,Spain,Madrid,40.4167047,-3.7035825
253,251,university bath,13825,16.5,32.0,46.0,50.0,28.6,31.1,75.7,37.5,90.3,"Claverton Down, Bath, Somerset, BA2 7AY, United Kingdom",,,,,,United Kingdom, Bath,51.3813864,-2.3596963
254,251,brighton and sussex medical school,880,11.0,15.0,57.0,50.0,15.9,19.9,100.0,34.4,77.7,"BSMS Teaching Building, Brighton, East Sussex, BN1 9PX, United Kingdom",,,,,,United Kingdom, Brighton,50.8214626,-0.1400561
255,251,university buffalo,25849,17.4,17.0,44.0,50.0,37.2,32.7,73.8,42.1,64.7,"12 Capen Hall Buffalo, New York 14260-1660, Buffalo, New York, 14260, United States",,,,,,United States, Buffalo,42.8867166,-78.8783922
256,251,university california riverside,22272,18.0,14.0,53.0,50.0,31.2,30.3,85.9,39.4,64.7,"900 University Avenue, # 116, Riverside, California, 92521-0001, United States",,,,,,United States, Riverside,33.9533546,-117.3961623
257,251,chalmers university technology,9209,12.5,17.0,32.0,50.0,36.1,42.1,60.0,74.1,82.9,"Maskingränd 2, Göteborg, 412 58, Sweden",,,,,,Sweden, Göteborg,57.7072326,11.9670171
258,251,university cincinnati uptown,28434,20.4,9.0,51.0,50.0,35.5,30.8,83.9,39.4,40.9,"2600 Clifton Ave, Cincinnati, Ohio, 45221, United States",,,,,,United States, Cincinnati,39.1014537,-84.5124602
259,251,curtin university,29214,20.2,31.0,51.0,50.0,23.4,30.4,83.2,44.8,94.2,"Kent Street, Bentley, Perth, Western Australia, WA 6102, Australia",,,,,,Australia, Bentley,-28.7777078,153.1124992
260,251,dalhousie university,15196,14.7,23.0,54.0,50.0,27.7,29.6,79.5,44.4,85.4,"Halifax, Nova Scotia, B3H 4R2, Canada",,,,,,Canada,Halifax,44.648618,-63.5859487
261,251,university delaware,20566,17.0,10.0,57.0,50.0,28.5,38.2,71.5,90.6,47.2,"150 South College Avenue, Newark, Delaware, 19716-7200, United States",,,,,,United States, Newark,40.735657,-74.1723667
263,251,university essex,11925,16.1,39.0,54.0,50.0,31.6,34.3,68.6,35.0,96.5,"Wivenhoe Park, Colchester, Essex, CO4 3SQ, United Kingdom",,,,,,United Kingdom, Colchester,51.8896903,0.8994651
264,251,flinders university,16844,25.8,34.0,64.0,50.0,22.5,29.9,84.4,37.7,88.0,"Sturt Road, Bedford Park, South Australia, SA 5042, Australia",,,,,,Australia, Bedford Park,-35.0233978,138.5698409
265,251,florida state university,38520,24.1,7.0,56.0,50.0,38.0,40.1,69.2,39.4,43.5,"600 W. College Avenue, Tallahassee, Florida, 32306, United States",,,,,,United States, Tallahassee,30.4380832,-84.2809332
266,251,george mason university,29377,18.0,10.0,54.0,50.0,29.9,26.3,89.5,35.8,46.2,"4400 University Drive, Fairfax, Virginia, 22030, United States",,,,,,United States, Fairfax,38.8462236,-77.3063733
267,251,heriot watt university,9190,17.2,35.0,41.0,50.0,28.4,26.7,75.2,42.0,94.0,"Scott Russell Building, Riccarton, Edinburgh, Midlothian, EH14 4AS, United Kingdom",,,,,,United Kingdom, Riccarton,55.5953612,-4.4968041
269,251,university illinois chicago,27031,11.5,20.0,52.0,50.0,45.0,33.4,69.7,43.2,54.9,"1200 W Harrison St, Chicago, Illinois, 60607, United States",,,,,,United States, Chicago,41.8755616,-87.6244212
271,251,la trobe university,22292,33.9,29.0,64.0,50.0,27.1,33.1,73.3,51.3,83.8,"Kingsbury Drive, Bundoora, Melbourne, Victoria, VIC 3086, Australia",,,,,,Australia, Bundoora,-37.69730565,145.06625435609772
273,251,macau university science and technology,9924,24.4,79.0,56.0,50.0,27.1,22.4,83.0,34.8,99.6,"Avenida Wai, Long, Taipa, Macao",,,,,,Macao, Long,41.3847796,2.1422978
275,251,university galway,13911,26.6,17.0,58.0,50.0,27.1,29.9,76.3,42.4,79.8,"University Rd, Galway, H91 TK33, Ireland",,,,,,Ireland, Galway,53.2744122,-9.0490601
276,251,university navarra,10833,13.0,22.0,53.0,50.0,30.4,27.9,80.3,85.5,65.1,"Pamplona, Navarra, 31009, Spain",,,,,,Spain,Pamplona,42.8182536,-1.6440304
277,251,university oregon,22143,10.8,12.0,54.0,50.0,34.0,29.3,83.7,34.7,37.0,"1585 E. 13th Avenue, Eugene, Oregon, 97403, United States",,,,,,United States, Eugene,44.0505054,-123.0950506
278,251,oregon health and science university,2895,1.0,3.0,66.0,50.0,35.7,16.7,99.7,47.6,26.6,"3181 S.W. Sam Jackson Park Rd, Portland, Oregon, 97239-3098, United States",,,,,,United States, Portland,45.5202471,-122.674194
291,251,university stuttgart,26004,45.8,20.0,32.0,50.0,41.8,45.4,52.4,61.1,53.1,"Keplerstraße 7, Stuttgart, 70174, Germany",,,,,,Germany, Stuttgart,48.7784485,9.1800132
292,251,sun yat sen university,53603,16.6,9.0,51.0,50.0,43.6,35.8,63.5,56.4,34.9,"No. 135, Xingang Xi Road, Guangzhou, Guangdong, 510275, China",,,,,,China, Guangzhou,23.1301964,113.2592945
293,251,university surrey,13125,16.0,37.0,55.0,50.0,30.2,34.3,71.9,46.8,93.7,"Stag Hill, Guildford, Surrey, GU2 7XH, United Kingdom",,,,,,United Kingdom, Guildford,51.2356068,-0.5732063
294,251,swansea university,16445,16.8,23.0,45.0,50.0,21.3,24.1,93.3,36.8,83.2,"Singleton Park, Swansea, SA2 8PP, United Kingdom",,,,,,United Kingdom, Swansea,51.6195955,-3.9459248
295,251,syracuse university,20236,15.7,20.0,53.0,50.0,35.1,29.6,78.1,35.3,48.7,"900 South Crouse Ave, Syracuse, New York, NY 13244, United States",,,,,,United States, Syracuse,43.0481221,-76.1474244
296,251,tampere university,15149,21.8,6.0,51.0,50.0,26.4,34.7,81.8,52.6,49.3,"Kalevantie 4, Tampere, 33100, Finland",,,,,,Finland, Tampere,61.4980214,23.7603118
297,251,technical university darmstadt,18166,40.8,17.0,30.0,50.0,42.4,44.2,50.4,89.5,57.2,"Karolinenplatz 5, Darmstadt, 64289, Germany",,,,,,Germany, Darmstadt,49.8851869,8.6736295
298,251,tohoku university,17735,8.2,12.0,27.0,50.0,52.7,54.4,39.8,86.4,38.1,"2-1-1 Katahira, Aoba-ku, Sendai, Miyagi, 980-8577, Japan",,,,,,Japan, Sendai,38.2677554,140.8691498
299,251,tokyo institute technology,9752,7.7,13.0,15.0,50.0,51.2,51.8,37.4,69.3,40.5,"2-12-1 Ookayama, Meguro-ku, Tokyo, 152-8550, Japan",,,,,,Japan, Tokyo,35.6812665,139.757653
302,301,anglia ruskin university aru,18020,23.1,30.0,63.0,46.8,17.9,14.4,99.9,35.1,83.7,"East Road, Cambridge, Cambridgeshire, CB1 1PT, United Kingdom",,,,,,United Kingdom, Cambridge,52.2055314,0.1186637
303,301,beijing normal university,23524,15.4,11.0,,46.8,46.5,39.6,48.6,57.1,42.9,"No. 19 XinJieKouWai St, HaiDian Distric, Beijing, 100875, China",,,,,,China, Beijing,39.906217,116.3912757
306,301,colorado school mines,5768,16.7,11.0,29.0,46.8,30.1,25.1,79.6,46.6,42.1,"1500 Illinois Street, Golden, Colorado, CO 80401, United States",,,,,,United States, Golden,39.7546349,-105.22058
308,301,deakin university,39305,28.6,22.0,58.0,46.8,23.8,29.6,73.5,40.6,85.2,"1 Gheringhap Street, Geelong, Victoria, VIC 3220, Australia",,,,,,Australia, Geelong,-38.1493084,144.3598004
310,301,goethe university frankfurt,47141,19.6,15.0,57.0,46.8,31.7,29.5,75.6,43.2,59.9,"Theodor-W.-Adorno-Platz 1, Frankfurt, Hesse, 60323, Germany",,,,,,Germany, Hesse,50.6080651,9.0284647
312,301,huazhong university science and technology,56379,16.5,5.0,36.0,46.8,41.0,39.1,59.8,90.4,25.8,"1037 Luoyu Road, Wuhan, Hubei, 430074, China",,,,,,China, Wuhan,30.5951051,114.2999353
313,301,indian institute science,4128,9.6,1.0,23.0,46.8,58.6,55.3,32.4,57.1,20.2,"Bangalore, 560012, India",,,,,,India, India,22.3511148,78.6677428
315,301,constructor university,1142,16.2,76.0,45.0,46.8,40.6,33.2,50.7,55.1,88.7,"Campus Ring 1, Bremen, 28579, Germany",,,,,,Germany, Bremen,53.0758196,8.8071646
316,301,johannes gutenberg university mainz,31919,26.9,11.0,59.0,46.8,35.2,22.6,77.4,68.9,56.7,"Saarstr. 21 D 55122, Mainz, Germany",,,,,,Germany, Mainz,50.0012314,8.2762513
318,301,kyung hee university,22102,17.3,22.0,51.0,46.8,33.8,40.5,56.4,84.9,62.6,"26, Kyungheedae-ro, Dongdaemun-gu, Seoul, 02447, South Korea",,,,,,South Korea, Seoul,37.5666791,126.9782914
319,301,university liege,20888,27.0,21.0,56.0,46.8,27.6,38.2,60.5,95.9,70.6,"Place du 20-Août 7, Liege, 4000, Belgium",,,,,,Belgium, Belgium,50.6402809,4.6667145
323,301,maynooth university,9291,28.3,12.0,55.0,46.8,20.3,29.8,80.3,37.3,78.2,"Maynooth, County Kildare, Ireland",,,,,,Ireland,Maynooth,53.38001345,-6.591600317241495
324,301,university milan,45451,21.4,6.0,59.0,46.8,35.9,28.9,72.2,37.7,42.6,"Via Festa del Perdono 7, Milano, 20122, Italy",,,,,,Italy, Italy,42.6384261,12.674297
329,301,north carolina state university,30231,12.5,15.0,45.0,46.8,36.7,35.3,64.7,43.2,57.8,"Raleigh, North Carolina, 27695, United States",,,,,,United States,Raleigh,35.7803977,-78.6390989
330,301,nova southeastern university,17785,23.4,6.0,69.0,46.8,33.8,10.3,99.5,34.4,29.5,"3301 College Avenue, Fort Lauderdale, Florida, 33314-7796, United States",,,,,,United States, Fort Lauderdale,26.1223084,-80.1433786
331,301,osaka university,22892,7.4,11.0,32.0,46.8,51.5,49.0,34.6,63.0,36.0,"1-1 Yamadaoka, Suita, Osaka, 565-0871, Japan",,,,,,Japan, Suita,34.764884,135.51735
332,301,politecnico di milano,35184,25.0,17.0,34.0,46.8,33.1,35.2,59.6,72.5,59.0,"Piazza Leonardo da Vinci 32, Milano, 20133, Italy",,,,,,Italy, Italy,42.6384261,12.674297
334,301,rush university,2425,2.0,1.0,74.0,46.8,37.2,12.9,92.1,41.3,19.7,"600 South Paulina St., Suite 440, Chicago, Illinois, 60612, United States",,,,,,United States, Chicago,41.8755616,-87.6244212
335,301,southern university science and technology sustech,3198,9.5,0.0,27.0,46.8,23.9,23.5,85.3,70.5,59.7,"No 1088, Xueyuan Rd, Nanshan District, Shenzhen, Guangdong, 518055, China",,,,,,China, Shenzhen,22.5445741,114.0545429
336,301,stony brook university,24201,10.5,23.0,50.0,46.8,34.4,23.5,77.0,36.1,71.5,"Stony Brook, New York, 11794, United States",,,,,,United States,Stony Brook,40.9256538,-73.140943
339,301,university tartu,8532,11.6,8.0,68.0,46.8,26.8,27.1,82.4,37.5,55.4,"Ülikooli 18, Tartu, 50090, Estonia",,,,,,Estonia, Tartu,58.3801207,26.72245
340,301,university tasmania,18219,24.9,30.0,60.0,46.8,26.0,33.7,63.0,50.1,88.2,"Churchill Avenue, Sandy Bay, Hobart, Tasmania, TAS 7001, Australia",,,,,,Australia, Sandy Bay,-42.897129,147.3273528
341,301,temple university,35814,13.0,9.0,53.0,46.8,39.3,23.5,79.3,34.4,37.7,"1801 N. Broad Street, Philadelphia, Pennsylvania, 19122, United States",,,,,,United States, Philadelphia,39.9527237,-75.1635262
342,301,university tennessee knoxville,25907,16.8,5.0,,46.8,32.9,23.4,80.3,43.9,45.7,"Knoxville, Tennessee, 37996, United States",,,,,,United States,Knoxville,35.9603948,-83.9210261
343,301,university texas dallas,22757,21.6,25.0,43.0,46.8,23.7,29.3,82.1,39.9,60.2,"800 W. Campbell Road, Richardson, Texas, 75080-3021, United States",,,,,,United States, Richardson,32.9481789,-96.7297206
344,301,university trento,12920,19.5,7.0,51.0,46.8,27.7,31.7,77.8,41.5,57.7,"Via Calepina, 14, Trento, 38122, Italy",,,,,,Italy, Trento,46.1029536,11.12974249416882
345,301,tulane university,11185,9.8,11.0,57.0,46.8,42.3,24.1,72.7,37.0,41.9,"6823 St Charles Ave, New Orleans, Louisiana, 70118-5645, United States",,,,,,United States, New Orleans,29.9759983,-90.0782127
348,301,university college cork,16861,18.0,18.0,58.0,46.8,24.9,23.1,77.5,44.5,81.3,"Western Road, Cork, Ireland",,,,,,Ireland, Cork,51.897077,-8.4654674
349,301,victoria university,14815,32.2,23.0,53.0,46.8,24.0,26.0,75.3,42.8,77.9,"Ballarat Road, Footscray, Victoria, VIC 3011, Australia",,,,,,Australia, Footscray,-37.801366,144.9024240873921
350,351,university alaska fairbanks,3593,8.7,5.0,51.0,44.4,27.5,25.0,72.5,43.8,53.9,"1731 South Chandalar Drive, Fairbanks, Alaska, 99775, United States",,,,,,United States, Fairbanks,64.837845,-147.716675
351,351,american university beirut,8401,8.5,21.0,51.0,44.4,28.7,14.9,77.1,36.7,78.2,"PO Box 11-0236, Riad El-Solh, Beirut 1107 2020, Lebanon",,,,,,Lebanon, Lebanon,33.8750629,35.843409
352,351,australian catholic university,23886,43.5,12.0,73.0,44.4,20.6,27.5,73.4,39.4,74.3,"40 Edward Street, North Sydney, Sydney, New South Wales, NSW 2060, Australia",,,,,,Australia, North Sydney,-33.8354519,151.2083011
355,351,birkbeck university london,8630,15.8,38.0,54.0,44.4,27.6,31.5,62.8,34.5,87.4,"Malet Street, Bloomsbury, London, WC1E 7HX, United Kingdom",,,,,,United Kingdom, Bloomsbury,51.5210963,-0.1289635
356,351,university bremen,18915,31.9,12.0,51.0,44.4,36.9,36.1,56.0,49.0,55.7,"Bibliothekstraße 1, Bremen, 28359, Germany",,,,,,Germany, Bremen,53.0758196,8.8071646
357,351,brunel university london,10960,16.4,36.0,47.0,44.4,26.9,26.9,63.2,36.8,95.3,"Kingston Lane, Uxbridge, Hillingdon, UB8 3PH, United Kingdom",,,,,,United Kingdom, Uxbridge,51.5449509,-0.4816672
358,351,university california merced,7324,20.9,8.0,51.0,44.4,17.1,21.6,95.3,38.0,42.4,"5200 North Lake Rd., Merced, California, 95343, United States",,,,,,United States, Merced,37.1641544,-120.7678602
360,351,clark university,3045,11.5,23.0,60.0,44.4,24.0,22.7,79.3,34.4,57.5,"950 Main Street, Worcester, Massachusetts, 01610, United States",,,,,,United States, Worcester,42.2625621,-71.8018877
361,351,university connecticut,32446,15.2,9.0,53.0,44.4,36.5,29.7,60.6,37.9,49.0,"2131 Hillside Road, Storrs, Connecticut, 06269, United States",,,,,,United States, Storrs,41.80564555,-72.25413294148728
362,351,university crete,13321,23.4,4.0,62.0,44.4,17.7,20.1,91.4,38.7,48.0,"Rethymnon, Crete, 74100, Greece",,,,,,Greece, Crete,35.3084952,24.46334231842296
363,351,university denver,9535,13.0,9.0,57.0,44.4,40.5,22.3,75.4,35.8,27.8,"2199 South University Blvd, Denver, Colorado, 80208, United States",,,,,,United States, Denver,39.7392364,-104.984862
364,351,university florence,34686,20.4,11.0,59.0,44.4,37.9,25.1,65.8,42.3,46.2,"P.zza S.Marco 4, Firenze, Florence, 50121, Italy",,,,,,Italy, Florence,43.7698712,11.2555757
365,351,goldsmiths university london,8485,15.3,35.0,66.0,44.4,33.8,28.6,60.4,35.1,79.4,"New Cross, London, SE14 6NW, United Kingdom",,,,,,United Kingdom,New Cross,51.4763706,-0.0326237
366,351,hanyang university,20087,15.7,21.0,,44.4,39.1,40.0,40.1,92.3,62.3,"222, Wangsimni-ro, Seongdong-gu, Seoul, 133-791, South Korea",,,,,,South Korea, Seoul,37.5666791,126.9782914
367,351,hasselt university,5189,31.1,13.0,47.0,44.4,28.3,38.1,56.6,49.7,68.1,"Martelarenlaan 42, 3500 Hasselt, Belgium",,,,,,Belgium, Belgium,50.6402809,4.6667145
368,351,hofstra university,10066,13.9,9.0,57.0,44.4,38.4,13.2,79.3,34.4,29.8,"105 Memorial Hall, 126 Hofstra University, Hempstead, New York, NY 11549, United States",,,,,,United States, Hempstead,33.6949319,-93.6929825
370,351,imt atlantique,1676,8.2,44.0,26.0,44.4,34.4,28.5,53.1,91.6,75.2,"La Chantrerie 4 rue Alfred Kastler, BP 20722, Nantes, Cedex 3, 44307, France",,,,,,France, Nantes,47.2186371,-1.5541362
371,351,indian institute technology indore,1128,9.7,0.0,17.0,44.4,32.5,23.7,77.1,39.9,19.7,"Khandwa Road, Simrol, Indore, 453552, India",,,,,,India, Indore,22.7203616,75.8681996
372,351,iowa state university,32469,18.8,12.0,44.0,44.4,29.5,33.0,60.5,49.6,56.7,"100 Enrollment Services Center, 2433 Union Drive, Ames, Iowa, 50011-2011, United States",,,,,,United States, Ames,42.0267567,-93.6170448
373,351,jordan university science and technology,21512,13.4,17.0,58.0,44.4,15.8,9.0,100.0,40.2,62.3,"Irbid 22110, Jordan, Jordan",,,,,,Jordan, Jordan,31.1667049,36.941628
375,351,university kent,17755,19.9,31.0,53.0,44.4,24.1,28.4,67.9,35.0,91.5,"Canterbury, Kent, CT2 7NZ, United Kingdom",,,,,,United Kingdom,Canterbury,51.2800275,1.0802533
376,351,khalifa university,3651,9.5,26.0,55.0,44.4,27.7,32.9,54.0,100.0,95.4,"PO.Box 127788, Abu Dhabi, United Arab Emirates",,,,,,United Arab Emirates, Abu Dhabi,24.4538352,54.3774014
377,351,loughborough university,14750,14.3,25.0,40.0,44.4,33.8,34.3,52.9,39.0,80.1,"Epinal Way, Loughborough, Leicestershire, LE11 3TU, United Kingdom",,,,,,United Kingdom, Loughborough,52.7723859,-1.2077985
378,351,university manitoba,29311,29.4,17.0,53.0,44.4,28.0,30.8,69.9,36.5,53.4,"Winnipeg, Manitoba, R3T 2N2, Canada",,,,,,Canada,Winnipeg,49.8955367,-97.1384584
379,351,nankai university,28061,13.3,7.0,,44.4,35.7,21.8,75.8,41.5,35.4,"94 Weijin Rd, Nankai, Tianjin, China",,,,,,China, Nankai,39.1391151,117.1410363
380,351,university naples federico ii,49604,19.6,2.0,55.0,44.4,35.4,23.4,71.9,38.2,31.2,"Corso Umberto I 40, Napoli, 80138, Italy",,,,,,Italy, Italy,42.6384261,12.674297
381,351,national tsing hua university,14853,18.0,10.0,42.0,44.4,35.4,46.2,50.1,64.8,36.2,"No. 101 Section 2, Kuang-Fu Road, Hsinchu, 30013, Taiwan",,,,,,Taiwan, Hsinchu,24.8066333,120.9686833
382,351,northumbria university,21810,17.5,17.0,55.0,44.4,19.4,18.1,85.6,35.1,72.4,"Ellison Place, Newcastle upon Tyne, Tyne and Wear, NE1 8ST, United Kingdom",,,,,,United Kingdom, Newcastle upon Tyne,54.9738474,-1.6131572
383,351,university occupational and environmental health japan,1142,2.6,1.0,54.0,44.4,26.9,9.6,99.8,40.2,18.1,"1-1, Iseigaoka Yahata-nishi-ku, Kitakyushu, Fukuoka, 807-8555, Japan",,,,,,Japan, Kitakyushu,33.8829996,130.8749015
385,351,oregon state university,24798,16.0,11.0,46.0,44.4,30.9,30.1,67.2,37.7,52.9,"Corvallis, Oregon, 97331, United States",,,,,,United States,Corvallis,44.5645659,-123.2620435
386,351,university perugia,24830,32.3,6.0,57.0,44.4,18.6,22.8,87.5,45.2,44.6,"Piazza Università 1, Perugia, 06123, Italy",,,,,,Italy, Perugia,43.1070321,12.402996209906489
387,351,university pisa,33726,22.4,6.0,51.0,44.4,31.2,26.5,74.3,40.5,40.9,"Lungarno Pacinotti 43, Pisa, 56126, Italy",,,,,,Italy, Pisa,43.7159395,10.4018624
388,351,rmit university,33848,22.4,30.0,47.0,44.4,25.7,26.1,64.5,42.5,91.8,"124 La Trobe Street, Melbourne, Victoria, VIC 3000, Australia",,,,,,Australia, Melbourne,-37.8142176,144.9631608
389,351,university salerno,24290,25.8,2.0,56.0,44.4,20.2,19.5,94.0,37.3,33.9,"Via Giovanni Paolo II, 132, Fisciano Salerno, 84084, Italy",,,,,,Italy, Italy,42.6384261,12.674297
390,351,university stirling,9250,15.8,23.0,63.0,44.4,23.6,25.3,75.5,35.2,82.1,"Stirling, Stirling, FK9 4LA, United Kingdom",,,,,,United Kingdom,Stirling,56.1181242,-3.9360012
391,351,suny university albany,15947,16.6,10.0,52.0,44.4,24.0,35.4,72.8,40.1,49.6,"1400 Washington Ave, Albany, New York, 12222, United States",,,,,,United States, Albany,42.6511674,-73.754968
392,351,swinburne university technology,14379,27.9,27.0,36.0,44.4,24.5,28.9,66.5,41.0,79.3,"PO Box 218, Hawthorn, Victoria, VIC 3122, Australia",,,,,,Australia, Hawthorn,-37.8244246,145.0317207
393,351,taipei medical university,5973,10.2,10.0,57.0,44.4,28.7,31.8,67.9,94.9,38.0,"250 Wuxing Street, Taipei, 11031, Taiwan",,,,,,Taiwan, Taipei,25.0375198,121.5636796
394,351,technische universitat dortmund,34267,108.8,10.0,45.0,44.4,37.6,41.4,54.2,45.8,42.2,"August-Schmidt-Straße 4, Dortmund, 44227, Germany",,,,,,Germany, Dortmund,51.5142273,7.4652789
395,351,university turku,12785,16.3,6.0,63.0,44.4,27.1,30.8,73.5,37.3,52.6,"Turku, 20014, Finland",,,,,,Finland,Turku,60.4517531,22.2670522
397,351,universite de versailles saint quentin en yvelines,16621,21.2,15.0,59.0,44.4,17.3,21.1,89.9,35.4,64.2,"55 avenue de Paris, Versailles, 78035, France",,,,,,France, Versailles,48.8035403,2.1266886
398,351,washington state university,27957,18.1,7.0,52.0,44.4,30.7,28.6,71.8,48.4,49.3,"P.O. Box 645910, Pullman, Washington, 99164, United States",,,,,,United States, Pullman,46.7304268,-117.173895
399,351,wayne state university,22295,11.3,9.0,55.0,44.4,33.3,18.1,83.3,45.4,37.6,"Detroit, Michigan, 48202, United States",,,,,,United States,Detroit,42.3315509,-83.0466403
400,351,wuhan university,52502,14.6,7.0,,44.4,44.0,34.0,52.5,84.7,40.4,"Luo-jia-shan, Wuchang, Wuhan, Hubei, 430072, China",,,,,,China, Wuchang,30.5566998,114.3109847
401,401,aberystwyth university,6865,16.2,19.0,49.0,42.3,24.8,22.9,66.3,39.7,78.1,"Reception, Penglais, Aberystwyth, Ceredigion, SY23 3FL, United Kingdom",,,,,,United Kingdom, Aberystwyth,52.4143113,-4.0816846
402,401,university alabama,35120,22.5,4.0,56.0,42.3,26.9,22.4,77.4,35.3,28.9,"719 University Boulevard, Tuscaloosa, Alabama, AL 35487, United States",,,,,,United States, Tuscaloosa,33.2095614,-87.5675258
403,401,american university,11750,11.0,12.0,65.0,42.3,40.9,19.5,65.7,39.1,32.3,"4400 Massachusetts Avenue, NW, Washington, District of Columbia, 20016, United States",,,,,,United States, Washington,38.8950368,-77.0365427
404,401,aswan university,22393,40.8,0.0,59.0,42.3,11.9,8.7,100.0,34.4,44.6,"Airport Road, Desert City, 81528, Egypt",,,,,,Egypt, Egypt,26.2540493,29.2675469
405,401,bangor university,9590,16.4,23.0,58.0,42.3,22.4,20.7,66.3,35.7,81.8,"Bangor, Gwynedd, LL57 2DG, United Kingdom",,,,,,United Kingdom,Bangor,53.2277187,-4.1268822
406,401,university bari aldo moro,29564,20.5,1.0,61.0,42.3,16.7,17.1,87.3,36.2,32.2,"Piazza Umberto I, Bari, 70121, Italy",,,,,,Italy, Bari,41.1257843,16.8620293
407,401,bond university,3341,10.3,43.0,54.0,42.3,21.1,19.6,64.6,35.9,89.2,"14 University Drive, Robina, Queensland, QLD 4226, Australia",,,,,,Australia, Robina,-28.0705635,153.39163957932692
408,401,university bordeaux,54965,21.6,13.0,58.0,42.3,30.0,22.7,66.8,36.4,58.4,"146 rue Léo Saignat, S 61292, Bordeaux, 33 076, France",,,,,,France, Bordeaux,44.841225,-0.5800364
409,401,bournemouth university,13690,17.1,18.0,55.0,42.3,33.2,18.7,55.5,34.8,79.8,"Fern Barrow, Poole, Dorset, BH12 5BB, United Kingdom",,,,,,United Kingdom, Poole,50.74020055,-1.9537512539581008
411,401,cankaya university,9164,28.4,2.0,45.0,42.3,14.9,11.4,99.7,34.9,43.2,"Eskisehir Yolu 29. Km Yukar?yurtcu Mahallesi, Mahallesi Mimar Sinan, Ankara, 06790, Turkey",,,,,,Turkey, Ankara,39.9207886,32.8540482
412,401,centrale nantes,1706,16.1,45.0,26.0,42.3,30.4,29.6,48.6,83.2,84.1,"1 rue de la Noë, Nantes, Pays de la Loire, 44321, France",,,,,,France, Nantes,47.2186371,-1.5541362
413,401,central south university,51546,18.4,2.0,,42.3,32.0,33.9,56.0,84.1,26.0,"932 South Lushan Rd, Changsha, Hunan, 410083, China",,,,,,China, Changsha,28.1450774,113.2384362
415,401,city university london,14360,18.5,51.0,56.0,42.3,26.1,27.8,57.7,35.5,94.9,"Northampton Square, London, EC1V 0HB, United Kingdom",,,,,,United Kingdom, London,51.5073359,-0.12765
416,401,colorado state university fort collins 0,26014,16.3,6.0,53.0,42.3,27.8,25.3,64.1,38.4,38.4,"Fort Collins, Colorado, 80523, United States",,,,,,United States,Fort Collins,40.5508527,-105.0668085
418,401,covenant university,8768,15.7,0.0,43.0,42.3,27.2,14.7,78.4,43.8,26.2,"KM. 10 Idiroko Road, Canaan Land, Ota, Ogun State, 112104, Nigeria",,,,,,Nigeria, Ota,6.966667,6.7
419,401,university cyprus,6635,22.0,11.0,66.0,42.3,24.0,24.6,62.3,47.7,81.0,"1 Panepistimiou Avenue, Aglantzia, Nicosia, Cyprus",,,,,,Cyprus, Nicosia,35.1748976,33.3638568
420,401,university desarrollo,15384,19.0,4.0,56.0,42.3,13.5,8.8,99.1,36.8,48.1,"Av. Plaza 680 San Carlos de Apoquindo, Las Condes, Santiago, 7610658, Chile",,,,,,Chile, Santiago,-33.4377756,-70.6504502
421,401,universidad diego portales,17287,14.9,2.0,49.0,42.3,14.7,10.5,95.3,34.4,50.4,"Manuel Rodríguez Sur 415, Santiago, Región Metropolitana, Chile",,,,,,Chile, Santiago,-33.4377756,-70.6504502
422,401,drexel university,19801,11.1,17.0,50.0,42.3,35.8,20.4,64.7,41.5,50.3,"3141 Chestnut Street, Philadelphia, Pennsylvania, 19104, United States",,,,,,United States, Philadelphia,39.9527237,-75.1635262
425,401,edith cowan university,17560,31.3,26.0,60.0,42.3,18.7,21.9,67.8,39.1,82.9,"270 Joondalup Drive, Joondalup, Western Australia, WA 6027, Australia",,,,,,Australia, Joondalup,-31.77955,115.76474475668536
427,401,university ferrara,14644,25.2,7.0,56.0,42.3,21.0,20.2,75.0,40.3,45.5,"via Ludovico Ariosto, 35, Ferrara, 44121, Italy",,,,,,Italy, Ferrara,44.76676425,11.827938995640167
428,401,free university bozen bolzano,3891,12.0,13.0,67.0,42.3,20.6,13.1,77.9,35.4,76.4,"Piazza Universita, 1, Bozen-Bolzano, 39100, Italy",,,,,,Italy, Italy,42.6384261,12.674297
429,401,fujita health university,2942,3.2,0.0,55.0,42.3,24.5,9.7,91.1,36.8,18.6,"1-98 Dengakugakubo, Kutsukake-cho, Toyoake, Aichi, 470-1192, Japan",,,,,,Japan, Toyoake,35.05936,137.013714
430,401,universita degli studi di genova,23977,19.5,9.0,55.0,42.3,32.1,23.1,63.8,42.9,43.9,"Via Balbi, 5, Genova, 16126, Italy",,,,,,Italy, Italy,42.6384261,12.674297
432,401,georgia state university,29290,14.4,6.0,61.0,42.3,33.9,27.2,62.9,35.4,41.9,"P.O. Box 3965, Atlanta, Georgia, 30302-3965, United States",,,,,,United States, Atlanta,33.7489924,-84.3902644
433,401,gwangju institute science and technology gist,2098,12.1,6.0,25.0,42.3,40.0,39.3,39.3,57.0,33.9,"123 Cheomdangwagi-ro, Buk-gu, Gwangju, 61005, South Korea",,,,,,South Korea, Gwangju,35.1594647,126.8515034
434,401,harbin institute technology,29603,9.9,12.0,32.0,42.3,39.5,36.8,44.0,99.3,36.7,"92 West Dazhi Street, Nangang District, Harbin, Heilongjiang, 150001, China",,,,,,China, Harbin,45.8016143,126.5287796
435,401,hokkaido university,18225,8.1,11.0,31.0,42.3,45.7,40.1,30.0,58.7,39.2,"Kita 8 Nishi 5, Kita-ku, Sapporo, Hokkaido, 060-0808, Japan",,,,,,Japan, Sapporo,43.061936,141.3542924
436,401,hong kong baptist university,8759,11.6,45.0,65.0,42.3,27.9,22.0,58.1,38.4,97.6,"Kowloon Tong, Kowloon, Hong Kong",,,,,,Hong Kong, Kowloon,22.2965739,114.1729841
437,401,university houston,44128,25.7,9.0,50.0,42.3,33.6,25.9,58.0,36.8,42.5,"4800 Calhoun Road, Houston, Texas, 77004-2693, United States",,,,,,United States, Houston,29.7589382,-95.3676974
438,401,hunan university,40715,20.4,2.0,46.0,42.3,23.6,24.1,74.9,52.6,22.4,"2 Lushan South Road, Yuelu, Changsha, Hunan, China",,,,,,China, Changsha,28.1450774,113.2384362
439,401,indian institute technology bombay,10267,16.1,1.0,19.0,42.3,44.7,39.6,34.9,80.3,21.0,"Powai, Mumbai, 400076, India",,,,,,India,Powai,19.1187195,72.9073476
440,401,indian institute technology delhi,7284,14.8,1.0,20.0,42.3,48.5,27.9,49.0,73.9,17.6,"Hauz Khas, New Delhi, 110016, India",,,,,,India, New Delhi,28.6138954,77.2090057
441,401,indian institute technology kharagpur,9167,12.3,0.0,18.0,42.3,41.3,38.9,39.0,91.9,18.8,"Kharagpur, 721302, India",,,,,,India,Kharagpur,25.133173050000003,86.52504036339789
444,401,university kansas,24526,9.9,9.0,52.0,42.3,36.9,22.6,68.3,43.5,35.4,"1502 Iowa Street, Kansas, 66045, United States",,,,,,United States, Kansas,38.27312,-98.5821872
446,401,university kwazulu natal,36660,29.2,4.0,58.0,42.3,25.4,28.7,70.1,36.8,55.0,"Private Bag X 54001, University Road, Westville, Durban, 4000, South Africa",,,,,,South Africa, Westville,-29.8244444,30.9386111
447,401,kyushu university,18643,8.8,13.0,28.0,42.3,44.2,39.2,34.3,75.3,38.8,"744 Motooka Nishi-ku, Fukuoka, 819-0395, Japan",,,,,,Japan, Fukuoka,33.6251241,130.6180016
448,401,leibniz university hannover,27625,54.0,14.0,40.0,42.3,36.8,29.9,46.1,52.3,48.6,"Welfengarten 1, Hannover, D-30167, Germany",,,,,,Germany, Hannover,52.3744779,9.7385532
450,401,liverpool john moores university,19460,17.4,14.0,53.0,42.3,17.7,17.5,78.2,34.9,71.8,"Ground Floor Exchange Station, Tithebarn Street, Liverpool, Merseyside, L2 2QP, United Kingdom",,,,,,United Kingdom, Liverpool,53.4071991,-2.99168
451,401,mansoura university,140126,24.9,3.0,55.0,42.3,19.1,9.2,88.1,39.6,44.3,"Elgomhouria Street, Mansoura, Dakahlia, 35516, Egypt",,,,,,Egypt, Egypt,26.2540493,29.2675469
452,401,middlesex university,15650,18.0,45.0,60.0,42.3,19.4,17.3,74.2,34.6,88.3,"The Burroughs, Barnet, London, NW4 4BT, United Kingdom",,,,,,United Kingdom, Barnet,51.65309,-0.2002261
453,401,university milan bicocca,26509,28.9,6.0,62.0,42.3,23.7,20.2,80.7,39.1,44.3,"Piazza dell'Ateneo Nuovo 1, Milano, 20126, Italy",,,,,,Italy, Italy,42.6384261,12.674297
454,401,university missouri st louis,7019,16.0,6.0,58.0,42.3,30.0,24.7,70.3,40.4,40.6,"1 University Blvd, St. Louis, Missouri, 63121-440, United States",,,,,,United States, St. Louis,38.6280278,-90.1910154
455,401,mizzou university missouri,28513,13.3,6.0,53.0,42.3,34.9,24.2,65.7,35.5,39.9,"Columbia, Missouri, 65211, United States",,,,,,United States,Columbia,34.0007493,-81.0343313
456,401,university modena and reggio emilia,17432,24.8,6.0,54.0,42.3,32.1,19.7,69.3,43.5,39.2,"Via Università 4, Modena, 41121, Italy",,,,,,Italy, Modena,44.5384728,10.93596087053074
457,401,murdoch university,14905,27.7,37.0,60.0,42.3,18.5,24.9,61.9,51.0,90.8,"90 South Street, Murdoch, Western Australia, WA 6150, Australia",,,,,,Australia, Murdoch,-32.0664255,115.8504737
459,401,university nebraska lincoln,24610,17.2,11.0,48.0,42.3,30.1,28.0,63.2,38.6,56.7,"1400 R Street, Lincoln, Nebraska, 68588, United States",,,,,,United States, Lincoln,40.8088861,-96.7077751
460,401,new mexico institute mining and technology,1809,11.3,8.0,30.0,42.3,22.3,14.6,70.6,78.1,62.9,"801 Leroy Place, Socorro, New Mexico, 87801, United States",,,,,,United States, Socorro,34.0572858,-106.8930799
461,401,norwegian university science and technology,35181,15.8,8.0,48.0,42.3,26.2,28.3,64.3,38.5,62.2,"Trondheim, NO-7491, Norway",,,,,,Norway,Trondheim,63.4304475,10.3952118
462,401,oklahoma state university,21494,15.8,7.0,50.0,42.3,24.1,21.5,71.1,36.9,44.3,"Stillwater, Oklahoma, 74078, United States",,,,,,United States,Stillwater,36.1156306,-97.0585717
463,401,university pavia,24623,41.5,8.0,56.0,42.3,24.6,25.7,65.5,55.5,47.0,"Strada Nuova 65, Pavia, 27100, Italy",,,,,,Italy, Pavia,45.03685465,9.137825082826026
465,401,university philippines,39877,8.4,1.0,58.0,42.3,24.1,17.2,86.9,39.4,37.9,"Diliman, Quezon City, 1102, Philippines",,,,,,Philippines, Quezon City,14.6504951,121.0490906
466,401,polytechnic university bari,6122,24.4,1.0,33.0,42.3,17.3,22.1,84.1,37.1,30.9,"Via Giovanni Amendola, 126/B, Bari, 70126, Italy",,,,,,Italy, Bari,41.1257843,16.8620293
467,401,pontifical javeriana university,30048,15.4,1.0,55.0,42.3,15.3,8.9,98.6,34.8,44.6,"Carrera 7 No. 40 - 62, Bogota, Distrito Capital, Colombia",,,,,,Colombia, Bogota,4.6529539,-74.0835643
468,401,university porto,32020,18.7,15.0,55.0,42.3,27.4,27.9,62.1,38.7,53.9,"Praça Gomes Teixeira, Porto, 4099-002, Portugal",,,,,,Portugal, Porto,41.1494512,-8.6107884
469,401,university portsmouth,20185,15.4,26.0,45.0,42.3,17.8,16.2,71.0,34.9,87.7,"University House, Winston Churchill Avenue, Portsmouth, Hampshire, PO1 2UP, United Kingdom",,,,,,United Kingdom, Portsmouth,50.8036831,-1.075614
471,401,quaid i azam university,14694,24.8,1.0,57.0,42.3,20.5,18.6,81.5,34.4,45.5,"Islamabad, 45320, Pakistan",,,,,,Pakistan,Islamabad,33.6938118,73.0651511
472,401,rensselaer polytechnic institute,7798,15.6,20.0,32.0,42.3,30.0,28.7,58.9,67.0,52.1,"110 Eighth Street, Troy, New York, 12180, United States",,,,,,United States, Troy,42.7284117,-73.6917878
473,401,royal veterinary college,2065,10.9,19.0,78.0,42.3,27.2,18.3,69.1,43.5,86.6,"Royal College Street, Camden, London, NW1 0TU, United Kingdom",,,,,,United Kingdom, Camden,51.54279655,-0.1624803135779896
474,401,sabanci university,3605,21.5,9.0,37.0,42.3,27.8,35.3,55.8,65.4,52.0,"Orta Mahalle, Tuzla, Istanbul, 34956, Turkey",,,,,,Turkey, Tuzla,41.081749,30.644102
476,401,university saskatchewan,17194,17.7,20.0,56.0,42.3,35.9,26.9,48.1,59.2,72.6,"105 Administration Place, Saskatoon, Saskatchewan, S7N 5A2, Canada",,,,,,Canada, Saskatoon,52.131802,-106.660767
478,401,sejong university,12119,17.0,10.0,47.0,42.3,23.4,20.8,75.4,40.0,42.6,"209 Neungdong-ro, Gwangjin-gu, Seoul, South Korea",,,,,,South Korea, Seoul,37.5666791,126.9782914
480,401,university siena,12636,14.8,8.0,59.0,42.3,37.9,21.6,67.6,37.5,43.1,"via Banchi di Sotto 55, Siena, 53100, Italy",,,,,,Italy, Siena,43.1672254,11.467181161339118
481,401,soas university london,5195,12.1,53.0,65.0,42.3,41.9,37.7,31.2,34.4,79.5,"Thornhaugh Street, Russell Square, London, Camden, WC1H 0XG, United Kingdom",,,,,,United Kingdom, London,51.5073359,-0.12765
482,401,university south carolina columbia,32291,16.2,5.0,55.0,42.3,33.2,25.5,63.7,36.2,43.2,"Columbia, South Carolina, 29208, United States",,,,,,United States,Columbia,34.0007493,-81.0343313
484,401,university strathclyde,18515,19.0,27.0,50.0,42.3,28.3,31.6,51.9,43.6,86.2,"16 Richmond Street, Glasgow, Strathclyde, G1 1XQ, United Kingdom",,,,,,United Kingdom, Glasgow,55.8606182,-4.2497933
485,401,technion israel institute technology,14703,21.8,5.0,36.0,42.3,32.4,31.5,56.8,36.5,63.7,"Technion City, Haifa, 32000, Israel",,,,,,Israel, Haifa,32.8191218,34.9983856
486,401,teikyo university,22873,16.7,2.0,34.0,42.3,14.8,10.8,95.9,36.5,19.2,"2-11-1 Kaga, Itabashi-ku, Tokyo, 173-8605, Japan",,,,,,Japan, Tokyo,35.6812665,139.757653
487,401,university texas san antonio,24435,24.5,4.0,51.0,42.3,18.1,21.1,78.0,36.2,36.4,"One UTSA Circle, San Antonio, Texas, TX 78249, United States",,,,,,United States, San Antonio,29.4246002,-98.4951405
488,401,tokyo medical and dental university tmdu,2999,3.3,9.0,49.0,42.3,45.2,24.2,58.1,63.1,27.1,"1- 5 -45 Yushima, Bunkyoku, Tokyo, 113-8510, Japan",,,,,,Japan, Tokyo,35.6812665,139.757653
489,401,tongji university,35690,13.1,13.0,45.0,42.3,35.5,43.6,34.6,98.2,56.0,"1239 Siping Road, Shanghai, China",,,,,,China, Shanghai,31.2323437,121.4691024
490,401,university trieste,15933,23.5,8.0,55.0,42.3,30.1,22.7,66.9,37.7,47.8,"Piazzale Europa 1, Trieste, 34127, Italy",,,,,,Italy, Trieste,45.6496485,13.7772781
491,401,university tsukuba,16844,13.6,21.0,39.0,42.3,43.3,37.2,34.4,44.6,44.3,"1-1-1 Tennodai, Tsukuba, Ibaraki, 305-8577, Japan",,,,,,Japan, Tsukuba,36.0833265,140.077279
492,401,university tulsa,5067,12.4,16.0,45.0,42.3,33.5,16.2,68.9,50.5,39.6,"800 South Tucker Drive, Tulsa, Oklahoma, 74104, United States",,,,,,United States, Tulsa,36.1563122,-95.9927516
493,401,university turin,55957,29.6,8.0,61.0,42.3,22.6,27.3,75.3,45.4,44.3,"Via Giuseppe Verdi 8, Turin, 10124, Italy",,,,,,Italy, Turin,45.0677551,7.6824892
494,401,uit arctic university norway,16475,13.0,10.0,59.0,42.3,21.5,18.0,80.0,36.0,64.5,"Hansine Hansens Veg 18, Tromso, Norway",,,,,,Norway, Norway,61.1529386,8.7876653
495,401,universita degli studi di urbino carlo bo,14278,39.6,6.0,61.0,42.3,17.1,14.6,88.4,37.4,49.8,"Via Aurelio Saffi 2, Urbino, 61029, Italy",,,,,,Italy, Urbino,43.7262608,12.6363135
496,401,university valencia,50311,14.9,12.0,62.0,42.3,24.6,20.8,70.8,37.0,47.0,"Avda. Blasco Ibáñez 13, Valencia, 46010, Spain",,,,,,Spain, Valencia,39.4697065,-0.3763353
497,401,verona university,19873,27.5,5.0,64.0,42.3,31.5,20.3,63.7,42.4,41.2,"Via dell'Artigliere 8, Verona, 37129, Italy",,,,,,Italy, Verona,45.4384958,10.9924122
498,401,university victoria,21169,25.7,20.0,55.0,42.3,23.6,15.9,70.1,44.9,87.2,"3800 Finnerty Road, Victoria, British Columbia, V8P 5C2, Canada",,,,,,Canada, Victoria,48.4283182,-123.3649533
499,401,yasouj university,6332,27.5,0.0,46.0,42.3,15.1,15.5,91.8,35.7,15.6,"Yasuj, Kohgiluyeh and Boyer-Ahmad, Iran",,,,,,Iran,Yasuj,30.6681785,51.581916
500,401,york university,46683,35.4,24.0,57.0,42.3,28.2,37.6,50.7,45.4,75.0,"4700 Keele Street, Toronto, Ontario, M3J 1P3, Canada",,,,,,Canada, Toronto,43.6534817,-79.3839347
501,501,university alabama huntsville,6729,16.3,8.0,43.0,38.7,22.2,22.4,58.1,68.4,44.9,"301 Sparkman Drive, Huntsville, Alabama, 35899, United States",,,,,,United States, Huntsville,34.729847,-86.5859011
502,501,amirkabir university technology,11580,21.6,2.0,35.0,38.7,34.2,31.8,43.2,76.5,21.9,"424 Hafez Ave, Tehran, Iran",,,,,,Iran, Tehran,35.6892523,51.3896004
503,501,university laquila,18867,55.3,4.0,57.0,38.7,30.8,18.7,65.4,41.4,32.3,"Palazzo Camponeschi, 2 Piazza Santa Margherita, L'Aquila, Abruzzo, 67100, Italy",,,,,,Italy, L'Aquila,42.1368853,13.610341022538911
504,501,aston university,11115,21.2,26.0,48.0,38.7,21.0,24.2,55.1,37.1,92.4,"Aston Triangle, Birmingham, West Midlands, B4 7ET, United Kingdom",,,,,,United Kingdom, Birmingham,52.4796992,-1.9026911
505,501,universidad autonoma de chile,23312,26.2,1.0,65.0,38.7,12.3,8.9,81.6,34.4,50.7,"Av. Pedro de Valdivia 425, Providencia, Región Metropolitana, Chile",,,,,,Chile, Providencia,-33.4288379,-70.61133725589745
506,501,bar ilan university,16723,17.5,5.0,60.0,38.7,29.9,36.5,44.2,46.6,52.9,"Ramat Gan, 52900, Israel",,,,,,Israel,Ramat Gan,32.0686867,34.8246812
507,501,beihang university,29952,13.7,6.0,,38.7,30.4,34.2,38.1,98.2,28.7,"XueYuan Road No.37, HaiDian District, Beijing, China",,,,,,China, Beijing,39.906217,116.3912757
508,501,bilkent university,10374,14.5,9.0,46.0,38.7,24.5,24.7,53.1,55.1,62.8,"Bilkent, Ankara, 06800, Turkey",,,,,,Turkey, Ankara,39.9207886,32.8540482
510,501,university brescia,14206,27.2,7.0,46.0,38.7,15.4,17.0,71.2,38.1,43.1,"Piazza del Mercato, 15, Brescia, 25121, Italy",,,,,,Italy, Brescia,45.77958045,10.4258729694612
511,501,university campinas,28795,15.1,3.0,47.0,38.7,44.6,38.0,34.8,44.8,30.6,"Rua da Reitoria, 121 Barão Geraldo, Campinas– SP, Sao Paulo, 13083-872, Brazil",,,,,,Brazil, Brazil,-10.3333333,-53.2
512,501,carleton university,27570,29.7,21.0,48.0,38.7,20.2,27.2,57.1,36.1,69.0,"1125 Colonel By Drive, Ottawa, Ontario, K1S 5B6, Canada",,,,,,Canada, Ottawa,45.4208777,-75.6901106
513,501,universita degli studi di catania,25392,20.4,2.0,57.0,38.7,33.1,17.7,67.6,36.9,29.8,"Piazza Università, 2, Catania, 95131, Italy",,,,,,Italy, Catania,37.5023612,15.0873718
514,501,catholic university sacred heart,28725,21.6,7.0,65.0,38.7,18.4,20.9,72.6,44.8,45.3,"Largo A. Gemelli, 1, Milano, 20123, Italy",,,,,,Italy, Italy,42.6384261,12.674297
516,501,charles darwin university,6314,22.8,32.0,66.0,38.7,19.9,24.3,51.4,45.2,81.1,"PO Box 40146, Casuarina, Northern Territory, NT 0811, Australia",,,,,,Australia, Casuarina,-28.2888946,153.5738752
517,501,institute chemical technology,2146,18.2,0.0,34.0,38.7,38.3,24.1,47.1,77.4,14.4,"Nathalal Parekh Marg, Matunga, Mumbai, 400019, India",,,,,,India, Mumbai,19.0785451,72.878176
518,501,china medical university taiwan,7603,16.5,8.0,54.0,38.7,25.8,32.4,45.9,87.7,31.4,"No. 100, Sec 1 Jingmao Rd, Beitun Dist., Taichung, 406040, Taiwan",,,,,,Taiwan, Taichung,24.163162,120.6478282
519,501,chung ang university,16681,22.1,18.0,,38.7,37.9,37.0,25.2,64.6,49.7,"84 Heukseok-Ro, Dongjak-gu, Seoul, South Korea",,,,,,South Korea, Seoul,37.5666791,126.9782914
520,501,claude bernard university lyon 1,26875,12.7,13.0,53.0,38.7,26.0,24.0,58.0,38.6,56.7,"43 Blvd du 11 Novembre 1918, 69622 Villeurbanne cedex, Lyon, France",,,,,,France, Lyon,45.7578137,4.8320114
521,501,complutense university madrid,62624,19.7,13.0,61.0,38.7,35.4,28.9,47.2,36.1,44.0,"Avda. de Séneca, 2, Ciudad Universitaria, Madrid, 28040, Spain",,,,,,Spain, Madrid,40.4167047,-3.7035825
522,501,east china normal university,25747,11.5,17.0,65.0,38.7,30.5,23.5,50.5,50.6,58.4,"3663 Zhongshan North Road, Shanghai 200062, Shanghai, 200062, China",,,,,,China, Shanghai,31.2323437,121.4691024
523,501,florida international university,34203,23.8,8.0,57.0,38.7,30.4,22.6,62.3,38.0,39.7,"11200 S.W. 8th Street, Miami, Florida, 33199, United States",,,,,,United States, Miami,25.7741728,-80.19362
526,501,university greifswald,10247,21.1,7.0,56.0,38.7,30.0,22.4,60.2,39.1,47.0,"Domstraße 11, Greifswald, 17489, Germany",,,,,,Germany, Greifswald,54.095791,13.3815238
527,501,university guelph,22165,29.1,9.0,59.0,38.7,26.2,29.4,47.4,48.6,57.7,"50 Stone Road East, Guelph, Ontario, N1G 2W1, Canada",,,,,,Canada, Guelph,43.5460516,-80.2493276
528,501,hacettepe university,47035,22.0,4.0,56.0,38.7,28.4,13.1,70.5,37.5,25.0,"The Rector's Office, Beytepe, Ankara, 06800, Turkey",,,,,,Turkey, Ankara,39.9207886,32.8540482
529,501,university haifa,16164,21.0,2.0,66.0,38.7,26.7,31.9,52.8,36.3,35.9,"199 Aba Khoushy Avenue, Mount Carmel, Mount Carmel, Haifa, 3498838, Israel",,,,,,Israel, Mount Carmel,32.7302954,35.0500532
530,501,hamburg university technology,5216,35.2,19.0,27.0,38.7,36.2,23.9,42.5,79.1,52.7,"Am Schwarzenberg, Hamburg, 21073, Germany",,,,,,Germany, Hamburg,53.550341,10.000654
531,501,university hull,14045,18.2,19.0,53.0,38.7,22.3,23.0,56.1,36.3,76.5,"Hull, HU6 7RX, United Kingdom",,,,,,United Kingdom,Hull,53.7435722,-0.3394758
532,501,university ibadan,26648,16.4,1.0,48.0,38.7,23.4,12.1,77.6,41.4,37.1,"Ibadan, Oyo 234, Nigeria",,,,,,Nigeria,Ibadan,7.3777462,3.8972497
533,501,university idaho,9694,17.0,8.0,48.0,38.7,33.3,21.1,53.4,36.2,45.9,"875 Perimeter Drive, Moscow, Idaho, 83844, United States",,,,,,United States, Moscow,46.7323875,-117.0001651
534,501,indian institute technology gandhinagar,1222,11.2,0.0,22.0,38.7,21.1,11.5,76.0,45.1,28.0,"Village Palaj Simkheda, Gandhinagar, Gujarat, 382355, India",,,,,,India, Gandhinagar,23.2232877,72.6492267
535,501,indian institute technology roorkee,7561,16.4,2.0,16.0,38.7,38.9,28.2,46.6,72.5,16.5,"Roorkee, Roorkee, 247667, India",,,,,,India,Roorkee,29.8693496,77.8902124
536,501,university insubria,7646,22.1,6.0,55.0,38.7,18.5,19.5,72.1,36.6,40.2,"Via Ravasi, 2, Varese, Lombardia, 21100, Italy",,,,,,Italy, Varese,45.8397203,8.754133838056571
538,501,kansai medical university,841,1.1,3.0,38.0,38.7,32.3,8.7,70.0,35.6,17.7,"2-5-1 Shin-machi, Hirakata City, Osaka, 573-1010, Japan",,,,,,Japan, Osaka,34.661629000000005,135.49992679245517
540,501,keele university,9005,15.0,19.0,56.0,38.7,20.3,22.4,64.1,35.5,73.8,"Keele, Staffordshire, ST5 5BG, United Kingdom",,,,,,United Kingdom,Keele,53.0038078,-2.2877425
541,501,king fahd university petroleum and minerals,6882,6.8,13.0,0.0,38.7,27.2,15.9,51.7,64.4,78.7,"Dhahran, 31261, Saudi Arabia",,,,,,Saudi Arabia,Dhahran,26.2966528,50.1202146
542,501,king saud university,38971,10.4,10.0,59.0,38.7,24.6,25.8,49.6,83.4,80.3,"PO Box 11362, Riyadh, Saudi Arabia",,,,,,Saudi Arabia, Riyadh,24.638916,46.7160104
544,501,koc university,5381,15.6,6.0,51.0,38.7,26.9,34.4,49.2,60.2,49.7,"Rumelifeneri Yolu, Sariyer, Istanbul, 34450, Turkey",,,,,,Turkey, Istanbul,41.0091982,28.9662187
545,501,lappeenranta lahti university technology lut,3851,28.2,19.0,31.0,38.7,28.3,30.1,43.1,53.8,61.5,"Yliopistonkatu 34, Lappeenranta, 53850, Finland",,,,,,Finland, Lappeenranta,61.0583713,28.1862742
546,501,university limerick,14221,21.7,17.0,48.0,38.7,20.1,23.5,54.6,39.2,83.7,"Limerick, V94 T9PX, Ireland",,,,,,Ireland,Limerick,52.661252,-8.6301239
547,501,lincoln university,2476,13.5,39.0,49.0,38.7,24.4,19.9,47.9,51.5,94.2,"Ellesmere Jct Rd/Springs Rd, Lincoln, Canterbury, New Zealand",,,,,,New Zealand, Lincoln,-43.6396099,172.4860237
549,501,louisiana state university,29169,20.7,6.0,52.0,38.7,34.5,26.3,55.3,35.4,35.5,"Baton Rouge, Louisiana, 70803, United States",,,,,,United States,Baton Rouge,30.4507936,-91.1391153
550,501,marche polytechnic university,10603,20.7,4.0,48.0,38.7,22.1,18.9,65.8,40.8,31.2,"Piazza Roma 22, Ancona, 60121, Italy",,,,,,Italy, Ancona,43.4801204,13.218790609151764
551,501,mashhad university medical sciences,9134,10.6,3.0,60.0,38.7,28.1,12.3,73.0,34.5,19.9,"P.O. Box: 91735-951, Mashhad, Iran",,,,,,Iran, Mashhad,36.2974945,59.6059232
552,501,massey university,18653,16.2,31.0,62.0,38.7,22.9,18.9,49.1,41.5,92.8,"Tennent Drive, Palmerston North, 4474, New Zealand",,,,,,New Zealand, Palmerston North,-40.356317,175.6112388
553,501,memorial university newfoundland,15127,13.7,18.0,57.0,38.7,20.5,19.9,57.7,61.0,74.1,"St. John's, PO Box 4200, Newfoundland, A1C 5S7, Canada",,,,,,Canada,St. John's,47.5614705,-52.7126162
554,501,missouri university science and technology,8084,22.2,14.0,23.0,38.7,24.2,24.6,59.2,52.9,66.0,"1870 Miner Circle, Rolla, Missouri, 65409, United States",,,,,,United States, Rolla,37.9509324,-91.7708076
555,501,national and kapodistrian university athens,57697,28.4,10.0,62.0,38.7,21.8,15.0,72.9,55.4,52.0,"30 Panepistimiou Ave, 106 79 Athens, Greece",,,,,,Greece, Greece,38.9953683,21.9877132
556,501,national chiao tung university,12017,16.7,12.0,30.0,38.7,35.8,43.3,25.6,87.0,35.9,"1001 University Road, Hsinchu, Hsinchu, 300, Taiwan",,,,,,Taiwan, Hsinchu,24.8066333,120.9686833
558,501,national yang ming university,4258,5.1,2.0,48.0,38.7,38.7,18.8,60.0,38.1,21.5,"No.155, Sec.2 Linong Street, Taipei, 112, Taiwan",,,,,,Taiwan, Taipei,25.0375198,121.5636796
559,501,university nebraska medical center,3041,2.3,7.0,68.0,38.7,35.8,12.1,57.5,38.1,43.5,"42nd and Emile, Omaha, Nebraska, 68198, United States",,,,,,United States, Omaha,41.2587459,-95.9383758
562,501,northern arizona university,29684,28.1,5.0,60.0,38.7,20.2,14.7,82.3,35.1,31.5,"South San Francisco Street, Flagstaff, Arizona, 86011, United States",,,,,,United States, Flagstaff,35.1987522,-111.651822
564,501,norwegian university life sciences,5790,6.9,21.0,59.0,38.7,26.5,10.5,66.2,39.9,78.4,"Universitetstunet 3, NO-1432 Aas, Norway",,,,,,Norway, Norway,61.1529386,8.7876653
566,501,open university,61915,32.3,8.0,62.0,38.7,18.2,16.1,66.5,34.8,57.0,"Walton Hall, Milton Keynes, Buckinghamshire, MK7 6AA, United Kingdom",,,,,,United Kingdom, Milton Keynes,52.0406502,-0.7594092
567,501,open university catalonia,22962,84.5,2.0,56.0,38.7,16.5,14.2,74.2,35.8,40.2,"Avinguda Tibidabo 39-43, Barcelona, 08035, Spain",,,,,,Spain, Barcelona,41.3828939,2.1774322
568,501,universidad peruana cayetano heredia,6236,10.6,0.0,66.0,38.7,17.0,11.3,83.1,34.7,46.4,"Av. Honorio Delgado 430, Urb. Ingeniería, San Martín de Porres- Lima, Peru",,,,,,Peru, Peru,-6.8699697,-75.0458515
570,501,university plymouth,17665,17.2,15.0,55.0,38.7,20.3,19.3,67.5,35.0,70.3,"8 Portland Villas, Drake Circus, Plymouth, Devon, PL4 8AA, United Kingdom",,,,,,United Kingdom, Plymouth,50.3712659,-4.1425658
571,501,polytechnic university turin,31425,35.8,13.0,28.0,38.7,26.2,25.4,55.3,50.8,46.5,"Corso Duca degli Abruzzi 24, Torino, 10129, Italy",,,,,,Italy, Italy,42.6384261,12.674297
572,501,pontificia universidad catolica de chile,28541,15.0,7.0,,38.7,24.2,28.3,48.6,64.5,57.1,"Avda. Libertador Bernardo, O'Higgins 340, Santiago, Chile",,,,,,Chile, Santiago,-33.4377756,-70.6504502
573,501,renmin university china,25590,12.5,6.0,,38.7,42.5,21.2,47.4,43.9,42.5,"No.59 Zhongguancun Street, Haidian District, Beijing, 100872, China",,,,,,China, Beijing,39.906217,116.3912757
574,501,university rhode island,16569,19.3,3.0,57.0,38.7,23.9,17.7,66.0,34.4,35.4,"45 Upper College Road, Kingston, Rhode Island, 02881, United States",,,,,,United States, Kingston,41.9287812,-74.0023702
575,501,university roma tor vergata,34965,19.9,11.0,52.0,38.7,23.2,17.8,67.1,37.2,51.3,"Via Cracovia snc, Rome, 00133, Italy",,,,,,Italy, Rome,41.8933203,12.4829321
576,501,university rome iii,31696,50.1,5.0,59.0,38.7,23.4,22.7,61.2,40.4,41.4,"Via Ostiense, 159, Roma, 00154, Italy",,,,,,Italy, Roma,41.8933203,12.4829321
577,501,university rovira i virgili,12411,12.3,11.0,59.0,38.7,23.7,21.0,67.6,36.6,51.1,"Carrer de l`Escorxador s/n, Tarragona, 43003, Spain",,,,,,Spain, Tarragona,41.1172364,1.2546057
578,501,san diego state university,30799,30.5,8.0,55.0,38.7,23.7,24.4,62.0,35.1,33.9,"5500 Campanile Drive, San Diego, California, 92182, United States",,,,,,United States, San Diego,32.7174202,-117.1627728
579,501,sharif university technology,9260,19.8,2.0,26.0,38.7,28.9,36.7,41.0,99.8,23.7,"Azadi Ave, Tehran, Iran",,,,,,Iran, Tehran,35.6892523,51.3896004
580,501,shenzhen university,35171,15.5,1.0,48.0,38.7,22.3,22.8,70.4,51.4,34.9,"Nanhai Ave 3688, Shenzhen, Guangdong, 518060, China",,,,,,China, Shenzhen,22.5445741,114.0545429
581,501,university siegen,19268,42.3,12.0,50.0,38.7,21.3,25.3,57.1,40.2,54.4,"Adolf-Reichwein-Straße 2a, Siegen, D-57068, Germany",,,,,,Germany, Siegen,50.8749804,8.0227233
582,501,soochow university china,44835,16.4,7.0,54.0,38.7,23.4,20.8,68.2,37.5,28.3,"No.1 Shizi Street, Suzhou City, Jiangsu Province, China",,,,,,China, China,35.000074,104.999927
583,501,south china university technology,41139,13.9,5.0,38.0,38.7,24.0,29.1,61.2,85.4,30.8,"Wushan Road Tianhe District, Guangzhou, Guangdong, 510641, China",,,,,,China, Guangzhou,23.1301964,113.2592945
584,501,southeast university,32951,11.6,5.0,40.0,38.7,29.6,33.4,42.7,97.3,26.9,"No.2 Sipailou NANJING, 210096, Nanjing, Jiangsu, 210096, China",,,,,,China, Nanjing,32.0615513,118.7915619
585,501,suez canal university,35363,10.8,1.0,58.0,38.7,19.9,8.7,82.6,37.9,46.0,"4.5 Km the Ring Road, Ismailia, 41522, Egypt",,,,,,Egypt, Ismailia,30.3671977,32.1565462
586,501,suny binghamton university,17848,23.3,14.0,49.0,38.7,22.8,21.9,62.0,36.8,42.7,"4400 Vestal Parkway East, Binghamton, New York, 13902, United States",,,,,,United States, Binghamton,42.0987125,-75.9125262
588,501,tianjin university,34780,14.0,6.0,,38.7,32.7,35.7,38.8,97.9,26.5,"92 Weijin Road, Nankai District, Tianjin, 300072, China",,,,,,China, Tianjin,39.084802,117.1959904
590,501,universiti tunku abdul rahman utar,18763,16.1,2.0,52.0,38.7,14.8,12.2,81.4,38.0,30.3,"Jalan Universiti Bandar Barat, Kampar, Perak, 31900, Malaysia",,,,,,Malaysia, Kampar,4.3,101.15
591,501,university udine,11793,17.8,7.0,53.0,38.7,26.2,16.1,68.7,38.0,41.5,"Via Palladio 8, Udine, 33100, Italy",,,,,,Italy, Udine,46.0634632,13.2358377
593,501,university waikato,9892,18.1,19.0,58.0,38.7,20.8,26.3,48.8,43.4,86.2,"Gate 1 Knighton Road, Hamilton, 3240, New Zealand",,,,,,New Zealand, Hamilton,-37.7878809,175.281788
594,501,university west indies,23305,22.2,1.0,71.0,38.7,17.8,11.1,73.4,38.9,57.2,"Mona, Kingston 7, Jamaica",,,,,,Jamaica,Mona,18.0087783,-76.7540823
595,501,university west scotland,11730,22.3,21.0,59.0,38.7,13.9,13.9,76.8,35.0,74.6,"High St Paisley, Paisley, PA1 2BE, United Kingdom",,,,,,United Kingdom, Paisley,55.8455828,-4.4239646
596,501,university wisconsin milwaukee,20874,19.3,6.0,53.0,38.7,21.7,22.7,66.9,36.2,33.2,"P.O. Box 413, Milwaukee, Wisconsin, 53201, United States",,,,,,United States, Milwaukee,43.0349931,-87.922497
597,501,university wuppertal,23343,55.8,11.0,52.0,38.7,25.0,17.9,60.2,44.5,51.2,"Gaußstraße 20, Wuppertal, 42119, Germany",,,,,,Germany, Wuppertal,51.264018,7.1780374
598,501,xiamen university,40841,14.6,4.0,47.0,38.7,27.3,22.9,57.1,53.3,31.5,"422 Siming South Road, Xiamen, Fujian, 361005, China",,,,,,China, Xiamen,24.4801069,118.0853479
599,501,xian jiaotong university,36557,12.5,6.0,32.0,38.7,35.1,30.7,41.3,61.4,39.1,"No.28 Xianning West Road, Xi'an, Shaanxi, 710049, China",,,,,,China, China,35.000074,104.999927
600,501,yokohama city university,4910,4.5,2.0,56.0,38.7,25.9,8.5,86.2,40.3,20.3,"22-2 Seto, Yokohama, Kanagawa, 236-0027, Japan",,,,,,Japan, Yokohama,35.4443947,139.6367727
602,601,university aizu,1165,10.8,5.0,11.0,35.2,20.8,12.5,41.7,36.0,68.3,"Tsuruga, Ikki-machi, Aizu-Wakamatsu City, Fukushima, 965-8580, Japan",,,,,,Japan,Tsuruga,35.6445135,136.0734634
603,601,university alcala,17793,12.9,18.0,56.0,35.2,18.5,15.7,43.2,42.5,59.0,"Pza. San Diego, s/n, Alcalá de Henares, Madrid, 28801, Spain",,,,,,Spain, Alcalá de Henares,40.4818396,-3.3644973
604,601,amedeo avogadro university eastern piedmont,13447,36.1,6.0,62.0,35.2,14.7,18.9,66.2,35.1,41.8,"Rettorato, via Duomo, 6, Vercelli, 13100, Italy",,,,,,Italy, Vercelli,45.55538265,8.346283678327271
605,601,amrita vishwa vidyapeetham,14689,11.9,12.0,,35.2,26.1,17.0,47.7,82.5,46.2,"Amritanagar, Coimbatore, Tamilnadu, 641112, India",,,,,,India, Coimbatore,11.0018115,76.9628425
606,601,university andes colombia,15521,13.2,2.0,44.0,35.2,21.1,15.9,45.0,37.4,55.7,"Carrera 1 N° 18A 12 Bogotá, Bogata, Distrito Capital, Colombia",,,,,,Colombia, Bogata,3.4270309,-76.4995274
607,601,aristotle university thessaloniki,46505,26.8,5.0,58.0,35.2,19.2,16.8,64.3,41.3,41.2,"54124 Thessaloniki, Greece",,,,,,Greece, Greece,38.9953683,21.9877132
608,601,university arkansas,24754,19.8,5.0,52.0,35.2,26.9,23.0,37.0,39.4,30.9,"Fayetteville, Arkansas, 72701, United States",,,,,,United States,Fayetteville,36.0625843,-94.1574328
609,601,auburn university,26641,18.8,9.0,51.0,35.2,32.7,21.1,43.3,40.2,43.8,"Auburn, Alabama, AL 36849, United States",,,,,,United States,Auburn,32.6098566,-85.4807825
610,601,university aveiro,9774,16.5,12.0,51.0,35.2,24.7,25.5,40.7,41.4,52.5,"Aveiro, 3810-193, Portugal",,,,,,Portugal,Aveiro,40.640496,-8.6537841
611,601,university balearic islands,11277,12.8,7.0,59.0,35.2,20.3,13.6,59.1,34.7,46.7,"Cra. de Valldemossa, Palma, Baleares, 07122, Spain",,,,,,Spain, Palma,39.5695818,2.6500745
612,601,banaras hindu university,14953,11.3,3.0,10.0,35.2,30.8,16.4,46.7,34.6,17.7,"Varanasi, Uttar Pradesh, 221005, India",,,,,,India,Varanasi,25.3356491,83.0076292
613,601,university basque country,42485,14.8,4.0,53.0,35.2,22.0,17.1,47.3,37.1,41.5,"Barrio Sarriena s/n, Leioa, Bizkaia, 48940, Spain",,,,,,Spain, Leioa,43.3271048,-2.9846079
614,601,baylor university,17078,16.2,6.0,57.0,35.2,32.1,18.2,53.9,35.3,33.2,"Waco, Texas, 76798, United States",,,,,,United States,Waco,31.549333,-97.1466695
615,601,beijing institute technology,30608,13.3,8.0,35.0,35.2,30.6,32.1,32.7,98.1,24.3,"5 South Zhongguancun Street, Haidian District, Beijing, 100081, China",,,,,,China, Beijing,39.906217,116.3912757
617,601,beni suef university,67981,25.3,1.0,46.0,35.2,14.7,7.4,60.8,34.4,45.9,"Built Salah Salem Street, Beni Suef, 62511, Egypt",,,,,,Egypt, Egypt,26.2540493,29.2675469
618,601,university bergamo,19022,57.0,7.0,61.0,35.2,19.5,21.0,59.3,40.9,36.6,"Via Salvecchio 19, Bergamo, 24129, Italy",,,,,,Italy, Bergamo,45.7566557,9.754219200862249
619,601,bogazici university,13202,23.2,3.0,46.0,35.2,23.2,21.2,49.4,50.8,41.8,"Bebek, Istanbul, 34342, Turkey",,,,,,Turkey, Istanbul,41.0091982,28.9662187
620,601,university brighton,17155,18.0,21.0,59.0,35.2,17.1,14.2,43.4,35.1,75.6,"Mithras House, Lewes Road, Brighton, East Sussex, BN2 4AT, United Kingdom",,,,,,United Kingdom, Brighton,50.8214626,-0.1400561
621,601,ca foscari university venice,15636,27.7,10.0,65.0,35.2,25.1,25.7,36.5,37.1,53.9,"Dorsoduro 3246 - 30123, 3246, Venezia, 30123, Italy",,,,,,Italy, Italy,42.6384261,12.674297
622,601,cairo university,223275,40.6,2.0,48.0,35.2,21.8,13.7,51.5,35.4,35.3,"1 Gamaa Street, Giza, 12613, Egypt",,,,,,Egypt, Giza,29.9870753,31.2118063
623,601,university calabria,27403,33.0,2.0,57.0,35.2,17.6,17.5,59.8,87.9,38.3,"Via Pietro Bucci, Arcavacata di Rende, 87036, Italy",,,,,,Italy, Italy,42.6384261,12.674297
624,601,university central florida,56228,35.3,4.0,56.0,35.2,26.5,28.7,49.7,42.6,32.9,"4000 Central Florida Blvd, Orlando, Florida, 32816, United States",,,,,,United States, Orlando,28.5421109,-81.3790304
626,601,chemnitz university technology,10473,45.7,24.0,43.0,35.2,33.0,26.5,26.8,67.8,53.6,"Straße der Nationen 62, Chemnitz, 09111, Germany",,,,,,Germany, Chemnitz,50.8322608,12.9252977
627,601,china agricultural university,19586,11.6,1.0,58.0,35.2,34.9,26.2,40.7,52.2,22.0,"17 Qinghua Donglu, Beijing, 100083, China",,,,,,China, Beijing,39.906217,116.3912757
628,601,china university petroleum,15150,18.7,4.0,,35.2,24.0,26.1,39.2,88.0,21.7,"18 Fuxue Road, Changping, Beijing, 102249, China",,,,,,China, Changping,40.2196456,116.2250912
629,601,clemson university,21436,17.0,7.0,47.0,35.2,25.0,21.2,43.0,40.1,39.2,"201 Sikes Hall, Clemson, South Carolina, SC29634, United States",,,,,,United States, Clemson,34.6850749,-82.8364111
630,601,university clermont auvergne,34644,18.8,13.0,56.0,35.2,19.2,10.0,57.0,38.0,61.8,"49 blvd François-Mitterrand, C.S 60032, Clermont-Ferrand, 63001, France",,,,,,France, Clermont-Ferrand,45.7774551,3.0819427
631,601,university coimbra,21404,17.6,19.0,57.0,35.2,23.7,28.1,47.4,41.0,58.7,"Paço das Escolas, Coimbra, 3004-531, Portugal",,,,,,Portugal, Coimbra,40.2111931,-8.4294632
632,601,comsats university islamabad,33030,11.4,1.0,28.0,35.2,16.9,9.9,65.5,34.5,45.7,"Park Road, Islamabad, 45550, Pakistan",,,,,,Pakistan, Islamabad,33.6938118,73.0651511
633,601,concordia university,33543,32.3,29.0,50.0,35.2,20.9,25.9,46.0,36.9,82.5,"1455 De Maisonneuve Blvd. W., Montreal, Quebec, H3G 1M8, Canada",,,,,,Canada, Montreal,45.5031824,-73.5698065
634,601,university costa rica,33900,15.1,2.0,53.0,35.2,16.2,7.9,77.1,34.4,48.2,"Rodrigo Facio Brenes, Montes de Oca, 2060 San José, Costa Rica",,,,,,Costa Rica, Costa Rica,10.2735633,-84.0739102
635,601,coventry university,27530,16.3,46.0,47.0,35.2,17.4,12.7,44.1,34.7,89.3,"Priory Street, Coventry, CV1 5FB, United Kingdom",,,,,,United Kingdom, Coventry,52.4081812,-1.510477
636,601,creighton university,8228,11.1,8.0,58.0,35.2,42.0,11.6,41.5,35.7,29.8,"2500 California Plaza, Omaha, Nebraska, 68178, United States",,,,,,United States, Omaha,41.2587459,-95.9383758
637,601,dalian university technology,39665,15.7,3.0,35.0,35.2,24.6,23.7,40.2,77.1,28.5,"No.2 Linggong Road, Ganjingzi District, Dalian City, Liaoning, China",,,,,,China, China,35.000074,104.999927
638,601,university delhi,24547,23.0,1.0,47.0,35.2,37.6,17.8,42.8,34.5,17.3,"Mall Road, Delhi, 110007, India",,,,,,India, Delhi,28.6517178,77.2219388
639,601,de montfort university,19095,19.5,27.0,56.0,35.2,16.9,13.8,50.4,34.6,75.6,"The Gateway, Leicester, Leicestershire, LE1 9BH, United Kingdom",,,,,,United Kingdom, Leicester,52.6362,-1.1331969
641,601,east china university science and technology,25519,15.6,2.0,43.0,35.2,22.0,19.1,44.0,56.1,17.9,"130 Meilong Road, Xuhui, Shanghai, 200237, China",,,,,,China, Xuhui,31.1900943,121.4311138
644,601,university electronic science and technology china,33242,16.4,4.0,31.0,35.2,23.5,22.2,55.1,71.8,28.8,"No.2006, Xiyuan Ave, West Hi-Tech Zone, Chengdu, Sichuan, 611731, China",,,,,,China, Chengdu,30.6598628,104.0633717
645,601,eotvos lorand university,26105,16.7,9.0,65.0,35.2,21.4,17.7,48.2,35.1,52.6,"Egyetem tér 1-3, Budapest, 1053, Hungary",,,,,,Hungary, Budapest,47.48138955,19.14609412691246
646,601,ewha womans university,14510,16.9,15.0,10.0,35.2,29.9,30.8,31.4,69.9,46.7,"52 Ewhayeodae-gil, Seodaemun-gu, Seoul, 561-760, South Korea",,,,,,South Korea, Seoul,37.5666791,126.9782914
647,601,federal university minas gerais,43899,12.6,2.0,53.0,35.2,30.2,17.9,52.0,38.8,29.6,"Av. Antonio Carlos, 6627, Pampulha, Belo Horizonte, 31270-901, Brazil",,,,,,Brazil, Belo Horizonte,-19.9225776,-43.9451356
648,601,universidade federal do rio grande do sul,52579,19.4,1.0,52.0,35.2,29.6,18.3,49.3,46.5,26.3,"Av. Paulo Gama, 110, Bairro Farroupilha, Porto Alegre, Rio Grande do Sul, 90040-060, Brazil",,,,,,Brazil, Porto Alegre,-30.0324999,-51.2303767
649,601,universidade federal de santa catarina,38719,16.6,2.0,49.0,35.2,28.4,13.1,52.6,38.7,29.4,"Campus Universitário Reitor, João David Ferreira Lima, Trindade, Florianópolis, 88040-900, Brazil",,,,,,Brazil, Trindade,-16.6549924,-49.4876203
650,601,universidade federal de sao paulo unifesp,14572,9.3,1.0,59.0,35.2,32.6,17.8,43.3,35.7,28.6,"Rua Sena Madureira, no 1500, Vila Clementino, Sao Paulo, 04021-001, Brazil",,,,,,Brazil, Brazil,-10.3333333,-53.2
651,601,ferhat abbas setif university 1,34002,22.7,1.0,65.0,35.2,17.7,7.7,73.0,34.4,41.8,"Sétif, 19000, Algeria",,,,,,Algeria,Sétif,36.1892751,5.403493
652,601,university girona,13906,19.0,14.0,58.0,35.2,18.9,18.2,57.6,37.4,53.9,"Pl. Sant Domènec, 3, Girona, 17004, Spain",,,,,,Spain, Girona,41.9793006,2.8199439
653,601,glasgow caledonian university,12635,19.9,17.0,59.0,35.2,15.7,12.2,56.2,35.2,61.1,"70 Cowcaddens Road, Glasgow, G4 0BA, United Kingdom",,,,,,United Kingdom, Glasgow,55.8606182,-4.2497933
654,601,university granada,56044,15.4,10.0,59.0,35.2,19.4,20.9,52.0,35.6,48.1,"Calle Real de Cartuja, 36-38, Granada, 18071, Spain",,,,,,Spain, Granada,37.1734995,-3.5995337
655,601,university greenwich,14475,18.0,36.0,58.0,35.2,17.1,15.2,39.5,35.4,89.4,"Park Row, Greenwich, London, SE10 9LS, United Kingdom",,,,,,United Kingdom, Greenwich,51.4820845,-0.0045417
656,601,university hertfordshire,17585,17.5,28.0,56.0,35.2,17.5,13.0,42.7,35.3,80.1,"College Lane, Hatfield, Hertfordshire, AL10 9AB, United Kingdom",,,,,,United Kingdom, Hatfield,51.7634675,-0.2258741
657,601,hiroshima university,15077,9.0,10.0,36.0,35.2,28.9,22.4,31.5,49.9,33.7,"1-3-2 Kagamiyama, Higashi-Hiroshima City, Hiroshima, 739-8511, Japan",,,,,,Japan, Hiroshima,34.3916058,132.4518156
658,601,huazhong agricultural university,25956,17.4,2.0,54.0,35.2,21.8,15.1,49.7,43.1,22.5,"No.1,Shizishan Street, Hongshan District, Wuhan, Hubei, 430070, China",,,,,,China, Wuhan,30.5951051,114.2999353
659,601,university huddersfield,14485,20.7,24.0,55.0,35.2,22.8,20.0,44.8,36.6,72.0,"Queensgate, Huddersfield, HD1 3DH, United Kingdom",,,,,,United Kingdom, Huddersfield,53.6466645,-1.7822482
661,601,imam khomeini international university,8330,28.6,7.0,55.0,35.2,12.3,8.5,78.0,34.7,20.7,"Qazvin, 34149-1681, Iran",,,,,,Iran,Qazvin,36.0156291,49.8398161
662,601,indian institute science education and research pune,1274,9.5,0.0,32.0,35.2,31.7,19.5,54.1,35.1,21.5,"Dr. Homi Bhabha Road, Pashan, Pune, 411008, India",,,,,,India, Pune,18.521428,73.8544541
663,601,indian institute technology bhubaneswar,1237,10.7,0.0,15.0,35.2,27.0,11.3,52.9,35.8,17.1,"Argul, Khordha, Odisha, 752050, India",,,,,,India, India,22.3511148,78.6677428
664,601,indian institute technology guwahati,5699,13.5,1.0,17.0,35.2,33.7,22.0,37.2,41.0,15.3,"Doul Govinda Road, Amingaon, Guwahati, Assam, 781039, India",,,,,,India, Guwahati,26.1805978,91.753943
665,601,indian institute technology hyderabad,2088,11.9,0.0,20.0,35.2,25.3,18.0,52.4,39.4,17.7,"Medak, Telangana, 502329, India",,,,,,India,Medak,17.9375095,78.21174498510584
666,601,indian institute technology kanpur,6860,13.6,0.0,14.0,35.2,37.8,24.5,35.2,94.3,18.8,"Kalyanpur, Kanpur-, 208016, India",,,,,,India, India,22.3511148,78.6677428
667,601,indian institute technology madras,9241,15.6,1.0,20.0,35.2,44.9,30.6,25.4,80.0,19.3,"Sardar Patel Road, Adyar, Chennai, 600036, India",,,,,,India, Chennai,13.0836939,80.270186
668,601,university indonesia,41170,9.9,11.0,65.0,35.2,38.7,19.2,16.7,81.6,53.7,"Kampus Baru UI Depok, Depok, 16424, Indonesia",,,,,,Indonesia, Depok,-6.40719,106.8158371
669,601,university international business and economics,15775,17.4,18.0,66.0,35.2,25.3,16.1,35.2,35.7,61.5,"No.10 Huixin East Street, Chaoyang District, Beijing, 100029, China",,,,,,China, Beijing,39.906217,116.3912757
670,601,university ioannina,21902,44.3,3.0,47.0,35.2,16.5,14.7,60.2,37.3,43.4,"P.O. Box 1186, 45110 Ioannina, Greece",,,,,,Greece, Greece,38.9953683,21.9877132
671,601,iran university medical sciences,8673,9.0,3.0,59.0,35.2,37.7,10.0,52.6,43.4,20.7,"Hemmat Highway, Tehran, 1449614535, Iran",,,,,,Iran, Tehran,35.6892523,51.3896004
674,601,isfahan university technology,10064,20.7,1.0,44.0,35.2,25.4,23.4,41.7,85.5,22.6,"Isfahan, Iran",,,,,,Iran,Isfahan,32.6707877,51.6650002
